{"features": [{"geometry": {"coordinates": [-46.427344, -23.478312], "type": "Point"}, "properties": {"cod": "108", "ct": ["25865294", "25811484"], "end": "Rua SAO BRAS DO SUACUI, 159    - JARDIM HELENA", "nome": "SEN. JOSE ERMIRIO DE MORAIS", "tipo": "EMEF        ", "tipo_cd": 1}, "type": "Feature"}, {"geometry": {"coordinates": [-46.749888, -23.612237], "type": "Point"}, "properties": {"cod": "191", "ct": ["58450121"], "end": "Avenida JOAO CAIAFFA, 140    - JARDIM TABOAO", "nome": "ALIPIO CORREA NETO, PROF", "tipo": "EMEF        ", "tipo_cd": 1}, "type": "Feature"}, {"geometry": {"coordinates": [-46.658865000000006, -23.688879], "type": "Point"}, "properties": {"cod": "264", "ct": ["56110316", "56123503"], "end": "Rua PEDRO NOGUEIRA DE PAZES, 199    - JARDIM ITAPURA", "nome": "SYLVIO HECK, ALM.", "tipo": "EMEF        ", "tipo_cd": 1}, "type": "Feature"}, {"geometry": {"coordinates": [-46.767503000000005, -23.624879999999997], "type": "Point"}, "properties": {"cod": "281", "ct": ["58416595", "58430147", "58422424"], "end": "Rua MARTINHO LUTERO, 375    - JARDIM CAMPO LIMPO", "nome": "VERA LUCIA FUSCO BORBA, PROFA.", "tipo": "EMEF        ", "tipo_cd": 1}, "type": "Feature"}, {"geometry": {"coordinates": [-46.654796999999995, -23.471774], "type": "Point"}, "properties": {"cod": "299", "ct": ["22586078", "22580315"], "end": "Rua ANTONIO DOMINGUES FREITAS, 147    - VILA AMELIA", "nome": "ROBERTO PATRICIO, PROF.", "tipo": "EMEF        ", "tipo_cd": 1}, "type": "Feature"}, {"geometry": {"coordinates": [-46.582907, -23.428244], "type": "Point"}, "properties": {"cod": "302", "ct": ["29952513", "29927707"], "end": "Rua KOTINDA, 1343   - JARDIM CORISCO", "nome": "CEL. HELIO FRANCO CHAVES", "tipo": "EMEF        ", "tipo_cd": 1}, "type": "Feature"}, {"geometry": {"coordinates": [-46.789733, -23.683548000000002], "type": "Point"}, "properties": {"cod": "311", "ct": ["58737928", "58726507"], "end": "Rua GARCIA DE ORTA, 36     - PARQUE INDEPENDENCIA", "nome": "ANTONIO ALVES DA SILVA, SG", "tipo": "EMEF        ", "tipo_cd": 1}, "type": "Feature"}, {"geometry": {"coordinates": [-46.675494, -23.689498999999998], "type": "Point"}, "properties": {"cod": "418", "ct": ["56114691", "56155200"], "end": "Rua RAFAEL CORREIA SAMPAIO, 291    - JARDIM PALMARES", "nome": "PROF. JOAO DE SOUZA FERRAZ", "tipo": "EMEF        ", "tipo_cd": 1}, "type": "Feature"}, {"geometry": {"coordinates": [-46.783825, -23.602076], "type": "Point"}, "properties": {"cod": "477", "ct": ["37820714"], "end": "Rua ENGENHEIRO HUGO TAKAHASHI, 333    - RAPOSO TAVARES", "nome": "PROFA. EDA TEREZINHA CHICA MEDEIROS", "tipo": "EMEF        ", "tipo_cd": 1}, "type": "Feature"}, {"geometry": {"coordinates": [-46.517809, -23.553203], "type": "Point"}, "properties": {"cod": "485", "ct": ["27811729", "27812502"], "end": "Avenida MENDON\u00c7A DRUMOND, 902    - JARDIM MARING\u00c1", "nome": "ASSAD ABDALA", "tipo": "EMEF        ", "tipo_cd": 1}, "type": "Feature"}, {"geometry": {"coordinates": [-46.713867, -23.433769], "type": "Point"}, "properties": {"cod": "540", "ct": ["39415771", "39415024", "39415771", "39745024"], "end": "Avenida ELIAS ANTONIO LOPES, 165    - PARQUE DE TAIPAS", "nome": "RAUL POMPEIA", "tipo": "EMEF        ", "tipo_cd": 1}, "type": "Feature"}, {"geometry": {"coordinates": [-46.757039, -23.722201000000002], "type": "Point"}, "properties": {"cod": "566", "ct": ["58990314", "55170577", "58999876"], "end": "Rua ENGENHEIRO MILTON DE ALVARENGA PEIXOTO, 20     - VILA GILDA", "nome": "TERESA MARGARIDA DA SILVA E ORTA", "tipo": "EMEF        ", "tipo_cd": 1}, "type": "Feature"}, {"geometry": {"coordinates": [-46.423164, -23.598558999999998], "type": "Point"}, "properties": {"cod": "892", "ct": ["27312097"], "end": "Rua \u00c9RICO SEMER, S/N    - JARDIM MARILU", "nome": "HENRIQUE SOUZA FILHO - HENFIL", "tipo": "EMEF        ", "tipo_cd": 1}, "type": "Feature"}, {"geometry": {"coordinates": [-46.406521999999995, -23.536549], "type": "Point"}, "properties": {"cod": "8834", "ct": ["25530020", "25571945", "25544580"], "end": "Rua ANDES, 807    - GUAIANAZES", "nome": "PROFA. IDEMIA DE GODOY", "tipo": "EMEF        ", "tipo_cd": 1}, "type": "Feature"}, {"geometry": {"coordinates": [-46.469597, -23.560774], "type": "Point"}, "properties": {"cod": "8842", "ct": ["27481131", "27493651"], "end": "Rua ONOFRE JORGE VELHO, 260    - CIDADE LIDER", "nome": "SEBASTIAO FRANCISCO, O NEGRO", "tipo": "EMEF        ", "tipo_cd": 1}, "type": "Feature"}, {"geometry": {"coordinates": [-46.403721000000004, -23.572339000000003], "type": "Point"}, "properties": {"cod": "9148", "ct": ["25554046", "25555119"], "end": "Rua IGARAPE DA DIANA, 60     - COHAB INACIO MONTEIRO", "nome": "ALEXANDRE VANNUCHI LEME", "tipo": "EMEF        ", "tipo_cd": 1}, "type": "Feature"}, {"geometry": {"coordinates": [-46.399528000000004, -23.570358], "type": "Point"}, "properties": {"cod": "9156", "ct": ["25552118", "25550663", "25550660"], "end": "Rua IGARAPE GUARA, 90     - CONJUNTO HABITACIONAL INACIO MONTEIRO", "nome": "SEN. LUIS CARLOS PRESTES", "tipo": "EMEF        ", "tipo_cd": 1}, "type": "Feature"}, {"geometry": {"coordinates": [-46.758412, -23.451038], "type": "Point"}, "properties": {"cod": "9326", "ct": ["39411906", "39281920"], "end": "Rua GONCALO ALDANA, 385    - VILA HOMERO", "nome": "IRENE GARCIA COSTA DE SOUZA, PROFA. DRA.", "tipo": "EMEF        ", "tipo_cd": 1}, "type": "Feature"}, {"geometry": {"coordinates": [-46.595209999999994, -23.610460999999997], "type": "Point"}, "properties": {"cod": "9971", "ct": ["22731677", "22731677", "20610209"], "end": "Estrada DAS L\u00c1GRIMAS, 1029   - IPIRANGA", "nome": "LUIZ GONZAGA DO NASCIMENTO JR GONZAGUINHA", "tipo": "EMEF        ", "tipo_cd": 1}, "type": "Feature"}, {"geometry": {"coordinates": [-46.403226000000004, -23.513925], "type": "Point"}, "properties": {"cod": "10049", "ct": ["25615022", "36789603"], "end": "Rua BRILHO DO SOL, 96     - JARDIM BARTIRA", "nome": "PE. CHICO FALCONI", "tipo": "EMEF        ", "tipo_cd": 1}, "type": "Feature"}, {"geometry": {"coordinates": [-46.49565, -23.561994], "type": "Point"}, "properties": {"cod": "10103", "ct": ["22545373", "22545615", "27450048", "27450253"], "end": "Rua QUINTINO DA CUNHA, 22     - JARDIM MAR\u00cdLIA", "nome": "FRANCISCO ALVES MENDES FILHO - CHICO MENDES", "tipo": "EMEF        ", "tipo_cd": 1}, "type": "Feature"}, {"geometry": {"coordinates": [-46.650371, -23.690562], "type": "Point"}, "properties": {"cod": "10111", "ct": ["56115719", "56155353"], "end": "Rua PAPA GREGORIO MAGNO, 133    - VILA MISSIONARIA", "nome": "PROF. MARIO SCHONBERG", "tipo": "EMEF        ", "tipo_cd": 1}, "type": "Feature"}, {"geometry": {"coordinates": [-46.644887, -23.681532], "type": "Point"}, "properties": {"cod": "10120", "ct": ["56252666", "56200604"], "end": "Avenida SANTO AFONSO, 775    - JARDIM MIRIAM", "nome": "CARLOS AUGUSTO DE QUEIROZ ROCHA", "tipo": "EMEF        ", "tipo_cd": 1}, "type": "Feature"}, {"geometry": {"coordinates": [-46.658543, -23.673298000000003], "type": "Point"}, "properties": {"cod": "10138", "ct": ["56773510", "55655928", "55655928"], "end": "Rua DO ESPIGAO, 195    - CIDADE ADEMAR", "nome": "PROFA. ELZA MAIA COSTA FREIRE", "tipo": "EMEF        ", "tipo_cd": 1}, "type": "Feature"}, {"geometry": {"coordinates": [-46.793313, -23.667435], "type": "Point"}, "properties": {"cod": "10146", "ct": ["58240917", "58220366", "58214205"], "end": "Rua VITORIANO PALHARES, 10     - JARDIM AMALIA", "nome": "MARIA RITA LOPES PONTES - IRMA DULCE", "tipo": "EMEF        ", "tipo_cd": 1}, "type": "Feature"}, {"geometry": {"coordinates": [-46.748594, -23.667809], "type": "Point"}, "properties": {"cod": "10154", "ct": ["55143131", "58901150", "58901266", "58946725"], "end": "Avenida RAQUEL ALVES MOREIRA, 823    - PARQUE SANTO ANT\u00d4NIO", "nome": "MAURO FACCIO GONCALVES - ZACARIA", "tipo": "EMEF        ", "tipo_cd": 1}, "type": "Feature"}, {"geometry": {"coordinates": [-46.753477000000004, -23.657215], "type": "Point"}, "properties": {"cod": "10162", "ct": ["55120884", "55139183", "58160393"], "end": "Rua HOLDA BOTTO MALANCONI, 431    - JARDIM DUPRAT", "nome": "PROF. LORENCO MANOEL SPARAPAN", "tipo": "EMEF        ", "tipo_cd": 1}, "type": "Feature"}, {"geometry": {"coordinates": [-46.75273, -23.451604], "type": "Point"}, "properties": {"cod": "10171", "ct": ["39415008", "39412335"], "end": "Rua JEAN CORALLI, 135    - JARDIM SANTA LUCRECIA", "nome": "ALDO RIBEIRO LUZ, PROF", "tipo": "EMEF        ", "tipo_cd": 1}, "type": "Feature"}, {"geometry": {"coordinates": [-46.393933000000004, -23.515209], "type": "Point"}, "properties": {"cod": "10405", "ct": ["25674538", "29638497"], "end": "Rua ANTONIO JOAO DE MEDEIROS, 1901   - JARDIM CAMARGO VELHO", "nome": "PE. NILDO DO AMARAL JUNIOR", "tipo": "EMEF        ", "tipo_cd": 1}, "type": "Feature"}, {"geometry": {"coordinates": [-46.396781, -23.554525], "type": "Point"}, "properties": {"cod": "10413", "ct": ["25571974"], "end": "Rua CAMARGO E LEME, 78     - VILA SAO GERALDO", "nome": "QUIRINO CARNEIRO RENNO, PROF.", "tipo": "EMEF        ", "tipo_cd": 1}, "type": "Feature"}, {"geometry": {"coordinates": [-46.757719, -23.650969], "type": "Point"}, "properties": {"cod": "10421", "ct": ["55120952", "58160361"], "end": "Rua ROGERIO DE PAULA BRITO, 100    - JARDIM SAO JANUARIO", "nome": "CYRO ALBUQUERQUE, DEP.", "tipo": "EMEF        ", "tipo_cd": 1}, "type": "Feature"}, {"geometry": {"coordinates": [-46.532526000000004, -23.613159], "type": "Point"}, "properties": {"cod": "11533", "ct": ["21431555"], "end": "Rua IGARAP\u00c9 FLORES, 19     - VILA S\u00c3O NICOLAU", "nome": "PROF. FRANCISCO DA SILVEIRA BUENO", "tipo": "EMEF        ", "tipo_cd": 1}, "type": "Feature"}, {"geometry": {"coordinates": [-46.600161, -23.527397], "type": "Point"}, "properties": {"cod": "11851", "ct": ["26932197", "26182100"], "end": "Avenida ARISTON AZEVEDO, 20     - CATUMBI", "nome": "ANALIA FRANCO BASTOS", "tipo": "EMEF        ", "tipo_cd": 1}, "type": "Feature"}, {"geometry": {"coordinates": [-46.801039, -23.586959], "type": "Point"}, "properties": {"cod": "11924", "ct": ["37829756", "37828909"], "end": "Rua CACHOEIRA PORAQU\u00ca, 575    - CONJUNTO PROMORAR RAPOSO TAVARES", "nome": "PROFA. MARIA ALICE BORGES GHION", "tipo": "EMEF        ", "tipo_cd": 1}, "type": "Feature"}, {"geometry": {"coordinates": [-46.394071000000004, -23.5783], "type": "Point"}, "properties": {"cod": "12157", "ct": ["25181164"], "end": "Rua DO PAI NOSSO, 7      - CONJUNTO HABITACIONAL SITIO CONCEI\u00c7\u00c3O", "nome": "ELIAS SHAMMASS", "tipo": "EMEF        ", "tipo_cd": 1}, "type": "Feature"}, {"geometry": {"coordinates": [-46.709945000000005, -23.832701], "type": "Point"}, "properties": {"cod": "12688", "ct": ["59208892", "59200341"], "end": "Rua CONDE DE LANCASTRE, 209    - JARDIM SANTA FE", "nome": "ULYSSES DA SYLVEIRA GUIMARAES", "tipo": "EMEF        ", "tipo_cd": 1}, "type": "Feature"}, {"geometry": {"coordinates": [-46.51229, -23.589160999999997], "type": "Point"}, "properties": {"cod": "12874", "ct": ["27211129"], "end": "Rua ALFONSO FERRABOSCO, 52     - PARQUE DOS BANC\u00c1RIOS", "nome": "BENEDITO DE JESUS BATISTA LAURINDO - PE BATISTA", "tipo": "EMEF        ", "tipo_cd": 1}, "type": "Feature"}, {"geometry": {"coordinates": [-46.784171, -23.671534], "type": "Point"}, "properties": {"cod": "12939", "ct": ["58212627", "58217556", "58220722"], "end": "Travessa PASSAREIRA, 200    - COHAB INSTITUTO ADVENTISTA", "nome": "JOSE OLYMPIO PEREIRA FILHO", "tipo": "EMEF        ", "tipo_cd": 1}, "type": "Feature"}, {"geometry": {"coordinates": [-46.400089, -23.59393], "type": "Point"}, "properties": {"cod": "13510", "ct": ["29648537", "22826500"], "end": "Rua VARZEA NOVA, 40     - CIDADE TIRADENTES", "nome": "OLINDA MENEZES SERRA VIDAL, PROFA.", "tipo": "EMEF        ", "tipo_cd": 1}, "type": "Feature"}, {"geometry": {"coordinates": [-46.401382, -23.590821], "type": "Point"}, "properties": {"cod": "13528", "ct": ["25160364", "29649068", "29649068"], "end": "Rua OLIMPIA MONTANI, 231    - SANTA ETELVINA II B", "nome": "ANNA LAMBERGA ZEGLIO, VER", "tipo": "EMEF        ", "tipo_cd": 1}, "type": "Feature"}, {"geometry": {"coordinates": [-46.457293, -23.631709], "type": "Point"}, "properties": {"cod": "13803", "ct": ["27510544", "27513175"], "end": "Travessa MEIRI, 73     - JARDIM RODOLFO PIRANI", "nome": "RODOLFO PIRANI", "tipo": "EMEF        ", "tipo_cd": 1}, "type": "Feature"}, {"geometry": {"coordinates": [-46.746385, -23.444016], "type": "Point"}, "properties": {"cod": "14249", "ct": ["39415020"], "end": "Rua VALE DAS FLORES, 120    - JARDIM SANTA LUCRECIA", "nome": "PROF. ERNESTO DE MORAES LEME", "tipo": "EMEF        ", "tipo_cd": 1}, "type": "Feature"}, {"geometry": {"coordinates": [-46.394483, -23.482913], "type": "Point"}, "properties": {"cod": "14583", "ct": ["25811398", "25811786", "25840328"], "end": "Rua GRUTA DAS PRINCESAS, 165    - VILA ITAIM", "nome": "PROF. FLAVIO AUGUSTO ROSA", "tipo": "EMEF        ", "tipo_cd": 1}, "type": "Feature"}, {"geometry": {"coordinates": [-46.407911999999996, -23.593882], "type": "Point"}, "properties": {"cod": "14699", "ct": ["22821569"], "end": "Rua IGARAP\u00c9 \u00c1GUA AZUL, 1259   - CONJUNTO HABITACIONAL SANTA ETELVINA II", "nome": "ANTONIO D'AVILA, PROF", "tipo": "EMEF        ", "tipo_cd": 1}, "type": "Feature"}, {"geometry": {"coordinates": [-46.41659, -23.592548], "type": "Point"}, "properties": {"cod": "15024", "ct": ["29649380", "22821513", "29640940"], "end": "Avenida NASCER DO SOL, 1360   - COHAB SANTA ETELVINA II A", "nome": "DEP. CAIO SERGIO POMPEU DE TOLEDO", "tipo": "EMEF        ", "tipo_cd": 1}, "type": "Feature"}, {"geometry": {"coordinates": [-46.479490000000006, -23.528199], "type": "Point"}, "properties": {"cod": "15121", "ct": ["20483469", "22805151"], "end": "Rua ALEXANDER BAIN, 89     - JARDIM NORDESTE", "nome": "PREF. JOSE CARLOS DE FIGUEIREDO FERRAZ", "tipo": "EMEF        ", "tipo_cd": 1}, "type": "Feature"}, {"geometry": {"coordinates": [-46.442999, -23.531651999999998], "type": "Point"}, "properties": {"cod": "15130", "ct": ["22055110", "20710233", "20796166"], "end": "Rua SEBASTIAO MEDEIROS DA SILVA, 89     - ITAQUERA", "nome": "PROF. JULIO CESAR DE MELO E SOUSA-MALBA TAHAN", "tipo": "EMEF        ", "tipo_cd": 1}, "type": "Feature"}, {"geometry": {"coordinates": [-46.492652, -23.498821], "type": "Point"}, "properties": {"cod": "15296", "ct": ["25476686", "29431850"], "end": "Rua PEDRA LAVRADA, 575    - PARQUE CISPER", "nome": "PROF. JOAO FRANZOLIN NETO", "tipo": "EMEF        ", "tipo_cd": 1}, "type": "Feature"}, {"geometry": {"coordinates": [-46.665417, -23.677047], "type": "Point"}, "properties": {"cod": "15423", "ct": ["56128553", "56120459", "56128554", "56128553"], "end": "Rua SELMA KURTZ, 166    - JARDIM MARIA LUIZA", "nome": "PRESTES MAIA", "tipo": "EMEF        ", "tipo_cd": 1}, "type": "Feature"}, {"geometry": {"coordinates": [-46.709184, -23.446482999999997], "type": "Point"}, "properties": {"cod": "15431", "ct": ["39793351"], "end": "Rua INTERATIVA, 100    - VILA BRASIL\u00c2NDIA", "nome": "ERNANI SILVA BRUNO", "tipo": "EMEF        ", "tipo_cd": 1}, "type": "Feature"}, {"geometry": {"coordinates": [-46.405384000000005, -23.525042000000003], "type": "Point"}, "properties": {"cod": "15440", "ct": ["20351789", "20354242"], "end": "Rua AMPARO DA SERRA, S/N    - PARQUE DOM JO\u00c3O NERI", "nome": "EUZEBIO ROCHA FILHO", "tipo": "EMEF        ", "tipo_cd": 1}, "type": "Feature"}, {"geometry": {"coordinates": [-46.760413, -23.409605], "type": "Point"}, "properties": {"cod": "16497", "ct": ["39171388", "39189191"], "end": "Rua SILVEIR\u00c2NIA, S/N    - JARDIM RUSSO", "nome": "FERNANDO GRACIOSO", "tipo": "EMEF        ", "tipo_cd": 1}, "type": "Feature"}, {"geometry": {"coordinates": [-46.712784, -23.764234], "type": "Point"}, "properties": {"cod": "16501", "ct": ["59713576", "59393887"], "end": "Avenida MARGUERITTE LONG, 41     - JARDIM GUANABARA", "nome": "PROF. FLORESTAN FERNANDES", "tipo": "EMEF        ", "tipo_cd": 1}, "type": "Feature"}, {"geometry": {"coordinates": [-46.411843, -23.582484], "type": "Point"}, "properties": {"cod": "16527", "ct": ["29640744", "22821589", "22821292"], "end": "Rua ARROIO ARAPONGAS, 275    - CONJUNTO HABITACIONAL SANTA ETELVINA III", "nome": "PROFA. CLAUDIA BARTOLOMAZI", "tipo": "EMEF        ", "tipo_cd": 1}, "type": "Feature"}, {"geometry": {"coordinates": [-46.746992, -23.665114000000003], "type": "Point"}, "properties": {"cod": "16713", "ct": ["58911391", "58912980"], "end": "Rua NOVA DO TUPAROQUERA, 1901   - JARDIM NOVO SANTO AMARO", "nome": "ANNA SILVEIRA PEDREIRA", "tipo": "EMEF        ", "tipo_cd": 1}, "type": "Feature"}, {"geometry": {"coordinates": [-46.371594, -23.494132999999998], "type": "Point"}, "properties": {"cod": "16993", "ct": ["29638611", "36789665"], "end": "Rua VALDOMIRO GONZAGA SILVA, 1233   - JARDIM DAS OLIVEIRAS", "nome": "VICENTE AMATO SOBRINHO, COM.", "tipo": "EMEF        ", "tipo_cd": 1}, "type": "Feature"}, {"geometry": {"coordinates": [-46.421659999999996, -23.587541], "type": "Point"}, "properties": {"cod": "17523", "ct": ["22820613", "22821039", "29640823", "29640822"], "end": "Rua ARROIO CAMPO BOM, 215    - COHAB SANTA ETELVINA II B", "nome": "PROFA. CLOTILDE ROSA HENRIQUES ELIAS", "tipo": "EMEF        ", "tipo_cd": 1}, "type": "Feature"}, {"geometry": {"coordinates": [-46.391523, -23.586924], "type": "Point"}, "properties": {"cod": "17973", "ct": ["22824000", "22829577"], "end": "Rua SALVADOR VIGANO, 100    - CONJUNTO HABITACIONAL BARRO BRANCO II", "nome": "PROF. MAILSON DELANE", "tipo": "EMEF        ", "tipo_cd": 1}, "type": "Feature"}, {"geometry": {"coordinates": [-46.582073, -23.609310999999998], "type": "Point"}, "properties": {"cod": "17981", "ct": ["22725205", "20680050", "20690005"], "end": "Rua PROFESSOR JOSE OZI, 62     - CIDADE NOVA HELIOPOLIS", "nome": "PERICLES EUGENIO DA SILVA RAMOS", "tipo": "EMEF        ", "tipo_cd": 1}, "type": "Feature"}, {"geometry": {"coordinates": [-46.444959000000004, -23.604571], "type": "Point"}, "properties": {"cod": "18511", "ct": ["27312406", "27313179"], "end": "Travessa SALVE A MOCIDADE, 932    - JARDIM DA CONQUISTA", "nome": "PROF. CARLOS CORREA MASCARO", "tipo": "EMEF        ", "tipo_cd": 1}, "type": "Feature"}, {"geometry": {"coordinates": [-46.668351, -23.747491], "type": "Point"}, "properties": {"cod": "18546", "ct": ["55280997", "59336224"], "end": "Rua DANIEL ALOMIA, 325    - JARDIM SIPRAMAR", "nome": "DAMIAO, FREI", "tipo": "EMEF        ", "tipo_cd": 1}, "type": "Feature"}, {"geometry": {"coordinates": [-46.723110999999996, -23.616863000000002], "type": "Point"}, "properties": {"cod": "18830", "ct": ["35014190"], "end": "Rua MELCHIOR GIOLA, 296    - PARAIS\u00d3POLIS", "nome": "PAULO FREIRE, PROF.", "tipo": "EMEF        ", "tipo_cd": 1}, "type": "Feature"}, {"geometry": {"coordinates": [-46.469652, -23.504119], "type": "Point"}, "properties": {"cod": "19011", "ct": ["25467825", "25470738"], "end": "Rua SAPUPIRA, 1005   - JD PEDRO JOSE NUNES", "nome": "SEN. LINO DE MATTOS", "tipo": "EMEF        ", "tipo_cd": 1}, "type": "Feature"}, {"geometry": {"coordinates": [-46.750663, -23.409972], "type": "Point"}, "properties": {"cod": "19020", "ct": ["39172538", "39180003"], "end": "Rua RECANTO DOS HUMILDES, S/N    - CONJUNTO HABITACIONAL RECANTO DOS HUMILD", "nome": "PROF. JAIRO DE ALMEIDA", "tipo": "EMEF        ", "tipo_cd": 1}, "type": "Feature"}, {"geometry": {"coordinates": [-46.556937, -23.517426], "type": "Point"}, "properties": {"cod": "19046", "ct": ["29557255", "29673221"], "end": "Rua GIUSEPPE MARINO, S/N    - PARQUE NOVO MUNDO", "nome": "PROFA. CELIA REGINA LEKEVICIUS CONSOLIN", "tipo": "EMEF        ", "tipo_cd": 1}, "type": "Feature"}, {"geometry": {"coordinates": [-46.481441, -23.56904], "type": "Point"}, "properties": {"cod": "19143", "ct": ["27484321", "27472788", "27484321"], "end": "Rua CORONEL ALBERT DE ROCHAS DAIGLUM, 50     - VILA ARICANDUVA", "nome": "JOSE QUERINO RIBEIRO", "tipo": "EMEF        ", "tipo_cd": 1}, "type": "Feature"}, {"geometry": {"coordinates": [-46.776740999999994, -23.599829999999997], "type": "Point"}, "properties": {"cod": "19160", "ct": ["37829767"], "end": "Rua D, 10     - JARDIM EDUCANDARIO", "nome": "PROFA. ILEUSA CAETANO DA SILVA", "tipo": "EMEF        ", "tipo_cd": 1}, "type": "Feature"}, {"geometry": {"coordinates": [-46.713987, -23.851734], "type": "Point"}, "properties": {"cod": "19194", "ct": ["59203963", "59202837"], "end": "Rua ANT\u00d4NIO BERNAL, 40     - JARDIM SILVEIRA", "nome": "PEDRO GERALDO SCHUNCK", "tipo": "EMEF        ", "tipo_cd": 1}, "type": "Feature"}, {"geometry": {"coordinates": [-46.732765, -23.439934], "type": "Point"}, "properties": {"cod": "19195", "ct": ["39441022", "39441024"], "end": "Rua SAMUEL BOVY, 23     - JARDIM RINCAO", "nome": "DR. JOSE KAUFFMANN", "tipo": "EMEF        ", "tipo_cd": 1}, "type": "Feature"}, {"geometry": {"coordinates": [-46.638653000000005, -23.690635], "type": "Point"}, "properties": {"cod": "19196", "ct": ["56258594"], "end": "Avenida FRANCESCO MARIA MELANI, S/N    - JARDIM LUSO", "nome": "LILIANE VERZINI SILVA", "tipo": "EMEF        ", "tipo_cd": 1}, "type": "Feature"}, {"geometry": {"coordinates": [-46.417465, -23.565278], "type": "Point"}, "properties": {"cod": "19208", "ct": ["25550885", "25554945", "25555733"], "end": "Rua HENRIQUE ADAMUS, 16     - JARDIM AUREA", "nome": "PROF. LUIZ ROBERTO MEGA", "tipo": "EMEF        ", "tipo_cd": 1}, "type": "Feature"}, {"geometry": {"coordinates": [-46.794255, -23.432489], "type": "Point"}, "properties": {"cod": "19215", "ct": ["39117746", "39117772"], "end": "Rua DION\u00cdSIO BELLANTE, 487    - JARDIM SANTA F\u00c9 (ZONA OESTE)", "nome": "REMO RINALDI NADDEO, PROF.", "tipo": "EMEF        ", "tipo_cd": 1}, "type": "Feature"}, {"geometry": {"coordinates": [-46.443374, -23.630846], "type": "Point"}, "properties": {"cod": "19216", "ct": ["27517342", "27517340", "22538803"], "end": "Rua JORGE CARLOS DE ALMEIDA, 66     - JARDIM SANTO ANDR\u00c9", "nome": "THEREZA MACIEL DE PAULA PROFA.", "tipo": "EMEF        ", "tipo_cd": 1}, "type": "Feature"}, {"geometry": {"coordinates": [-46.748369, -23.417754000000002], "type": "Point"}, "properties": {"cod": "19217", "ct": ["39177804"], "end": "Rua ARG\u00c9LIA, S/N    - JARDIM DA CONQUISTA (ZONA OESTE)", "nome": "RECANTO DOS HUMILDES", "tipo": "EMEF        ", "tipo_cd": 1}, "type": "Feature"}, {"geometry": {"coordinates": [-46.800671, -23.444254], "type": "Point"}, "properties": {"cod": "19218", "ct": ["39112741", "39121132", "39117588"], "end": "Rua PALMEIR\u00d3POLIS, S/N    - JARDIM MONTE BELO", "nome": "JD MONTE BELO", "tipo": "EMEF        ", "tipo_cd": 1}, "type": "Feature"}, {"geometry": {"coordinates": [-46.720664, -23.443038], "type": "Point"}, "properties": {"cod": "19219", "ct": ["39451994"], "end": "Estrada DO CONGO, 204    - JARDIM PIRITUBA", "nome": "ENZO ANTONIO SILVESTRIN, PROF", "tipo": "EMEF        ", "tipo_cd": 1}, "type": "Feature"}, {"geometry": {"coordinates": [-46.708067, -23.449415], "type": "Point"}, "properties": {"cod": "19220", "ct": ["39725654", "39729229"], "end": "Rua DOURADA, S/N    - COHAB JARDIM PAULISTANO", "nome": "MARIO LAGO", "tipo": "EMEF        ", "tipo_cd": 1}, "type": "Feature"}, {"geometry": {"coordinates": [-46.435664, -23.605043], "type": "Point"}, "properties": {"cod": "19221", "ct": ["27310555", "27320931"], "end": "Rua LUISA SARAZIM, 139    - JARDIM BANDEIRANTE", "nome": "JD DAS LARANJEIRAS", "tipo": "EMEF        ", "tipo_cd": 1}, "type": "Feature"}, {"geometry": {"coordinates": [-46.728606, -23.622482], "type": "Point"}, "properties": {"cod": "19222", "ct": ["37427124", "37429911", "35020091"], "end": "Rua JOS\u00c9 PEDRO DE CARVALHO LIMA, 100    - JARDIM PARQUE MORUMBI", "nome": "VEREMUNDO TOTH, DOM", "tipo": "EMEF        ", "tipo_cd": 1}, "type": "Feature"}, {"geometry": {"coordinates": [-46.446496999999994, -23.639636], "type": "Point"}, "properties": {"cod": "19223", "ct": ["27512399", "27539100"], "end": "Rua DOS LIRIOS, 2      - PARQUE DAS FLORES", "nome": "PARQUE DAS FLORES", "tipo": "EMEF        ", "tipo_cd": 1}, "type": "Feature"}, {"geometry": {"coordinates": [-46.788790000000006, -23.438592], "type": "Point"}, "properties": {"cod": "19224", "ct": ["39112577", "39165364"], "end": "Avenida FELIPPO STURBA, 25     - JARDIM ANHANG\u00dcERA", "nome": "MILENA BENEDICTO, PROFA", "tipo": "EMEF        ", "tipo_cd": 1}, "type": "Feature"}, {"geometry": {"coordinates": [-46.386055999999996, -23.489368], "type": "Point"}, "properties": {"cod": "19225", "ct": ["25691250", "25691251"], "end": "Rua ARISTIDES DE BASILE, 18     - JARDIM DAS OLIVEIRAS", "nome": "WANDA OVIDIO GONCALVES, PROFA.", "tipo": "EMEF        ", "tipo_cd": 1}, "type": "Feature"}, {"geometry": {"coordinates": [-46.677172, -23.753216000000002], "type": "Point"}, "properties": {"cod": "19228", "ct": ["59312726", "59315427"], "end": "Rua PORTUNHOS, S/N    - PARQUE COCAIA", "nome": "JOSE PEGORARO, PE", "tipo": "EMEF        ", "tipo_cd": 1}, "type": "Feature"}, {"geometry": {"coordinates": [-46.758753999999996, -23.507710999999997], "type": "Point"}, "properties": {"cod": "19229", "ct": ["36213737", "36228266"], "end": "Rua JOSE SOEIRO DE VAZ, 362    - JARDIM MARISA", "nome": "JOSUE DE CASTRO, PROF", "tipo": "EMEF        ", "tipo_cd": 1}, "type": "Feature"}, {"geometry": {"coordinates": [-46.485372999999996, -23.621948], "type": "Point"}, "properties": {"cod": "19232", "ct": ["29623355", "29624638"], "end": "Rua LUCAS LOSSIUS, 95     - JARDIM SANTA AD\u00c9LIA", "nome": "FAZENDA DA JUTA", "tipo": "EMEF        ", "tipo_cd": 1}, "type": "Feature"}, {"geometry": {"coordinates": [-46.790857, -23.433445000000003], "type": "Point"}, "properties": {"cod": "19233", "ct": ["39111658", "39113068", "39121141"], "end": "Rua ELISA DINA, 293    - JARDIM BRITANIA", "nome": "EDGARD CARONE", "tipo": "EMEF        ", "tipo_cd": 1}, "type": "Feature"}, {"geometry": {"coordinates": [-46.371894, -23.504214], "type": "Point"}, "properties": {"cod": "19241", "ct": ["25668599"], "end": "Rua PAULO TAPAJOS, 654    - ITAIM PAULISTA", "nome": "DR. HELLIO TAVARES", "tipo": "EMEF        ", "tipo_cd": 1}, "type": "Feature"}, {"geometry": {"coordinates": [-46.691662, -23.713704], "type": "Point"}, "properties": {"cod": "19243", "ct": ["56692463", "56670469", "56690861"], "end": "Avenida RUBENS MONTANARO DE BORBA, 862    - JARDIM REGIS", "nome": "MARINA MELANDER COUTINHO, PROFA", "tipo": "EMEF        ", "tipo_cd": 1}, "type": "Feature"}, {"geometry": {"coordinates": [-46.489323, -23.613483], "type": "Point"}, "properties": {"cod": "19244", "ct": ["29196487", "20141011", "29196487"], "end": "Rua ALEXANDRE GROPPALI, 147    - FAZENDA DA JUTA", "nome": "FAZENDA DA JUTA - A-07", "tipo": "EMEF        ", "tipo_cd": 1}, "type": "Feature"}, {"geometry": {"coordinates": [-46.794954, -23.680331], "type": "Point"}, "properties": {"cod": "19247", "ct": ["58241160", "58253208"], "end": "Rua CANTORIAS PAULISTAS, 20     - CONJUNTO HABITACIONAL JARDIM SAO BENTO", "nome": "TEREZINHA MOTA DE FIGUEIREDO", "tipo": "EMEF        ", "tipo_cd": 1}, "type": "Feature"}, {"geometry": {"coordinates": [-46.787957, -23.595554], "type": "Point"}, "properties": {"cod": "19249", "ct": ["37820687", "37820977", "37831199"], "end": "Rua AMARALINA, 141    - JARDIM ARPOADOR", "nome": "PROFA. DAISY AMADIO FUJIWARA", "tipo": "EMEF        ", "tipo_cd": 1}, "type": "Feature"}, {"geometry": {"coordinates": [-46.723022, -23.613154], "type": "Point"}, "properties": {"cod": "19251", "ct": ["35071974", "37499133"], "end": "Rua MAJOR JOS\u00c9 MARIOTO FERREIRA, 101    - PARAIS\u00d3POLIS", "nome": "CASARAO", "tipo": "EMEF        ", "tipo_cd": 1}, "type": "Feature"}, {"geometry": {"coordinates": [-46.703538, -23.765132], "type": "Point"}, "properties": {"cod": "19254", "ct": ["55274609", "55272829"], "end": "Rua J\u00daLIA MAMEIA, 200    - JARDIM SANTA F\u00c9 (ZONA SUL)", "nome": "AYRTON OLIVEIRA SAMPAIO ,PROF", "tipo": "EMEF        ", "tipo_cd": 1}, "type": "Feature"}, {"geometry": {"coordinates": [-46.639831, -23.70202], "type": "Point"}, "properties": {"cod": "19257", "ct": ["56733430", "56736117"], "end": "Rua MIGUEL FLETA, 167    - PARQUE DOROTEIA", "nome": "ALDO DATOFORI, PE", "tipo": "EMEF        ", "tipo_cd": 1}, "type": "Feature"}, {"geometry": {"coordinates": [-46.783317, -23.659108], "type": "Point"}, "properties": {"cod": "19267", "ct": ["58214121", "58220144"], "end": "Rua MARIA CALLAS, 30     - PARQUE LIGIA", "nome": "PROFA. MARIA RITA DE CASSIA P. SIMOES BRAGA", "tipo": "EMEF        ", "tipo_cd": 1}, "type": "Feature"}, {"geometry": {"coordinates": [-46.741554, -23.632348], "type": "Point"}, "properties": {"cod": "19275", "ct": ["37442024", "35020044"], "end": "Rua CATARINENSES, 200    - VILA ANDRADE", "nome": "FRANCISCO REBOLO", "tipo": "EMEF        ", "tipo_cd": 1}, "type": "Feature"}, {"geometry": {"coordinates": [-46.776771000000004, -23.75048], "type": "Point"}, "properties": {"cod": "19283", "ct": ["58990118", "58965577", "58968080"], "end": "Rua REN\u00c9 CASTERA, 601    - CH\u00c1CARA DA ENSEADA", "nome": "DEP. JOSE BLOTA JUNIOR", "tipo": "EMEF        ", "tipo_cd": 1}, "type": "Feature"}, {"geometry": {"coordinates": [-46.712619000000004, -23.861385000000002], "type": "Point"}, "properties": {"cod": "19291", "ct": ["59204003", "59204004"], "end": "Rua BEIJA-FLOR, 1      - COL\u00d4NIA (ZONA SUL)", "nome": "VARGEM GRANDE", "tipo": "EMEF        ", "tipo_cd": 1}, "type": "Feature"}, {"geometry": {"coordinates": [-46.679429999999996, -23.759671], "type": "Point"}, "properties": {"cod": "19305", "ct": ["59312828"], "end": "Rua CONQUISTA POPULAR, S/N    - VILA NASCENTE", "nome": "JOAO DA SILVA", "tipo": "EMEF        ", "tipo_cd": 1}, "type": "Feature"}, {"geometry": {"coordinates": [-46.744995, -23.400839], "type": "Point"}, "properties": {"cod": "19314", "ct": ["39190442", "39190454"], "end": "Rua ALAGOA NOVA, S/N    - PERUS", "nome": "PHILO GONCALVES DOS SANTOS, PROFA.", "tipo": "EMEF        ", "tipo_cd": 1}, "type": "Feature"}, {"geometry": {"coordinates": [-46.696555, -23.751521], "type": "Point"}, "properties": {"cod": "19321", "ct": ["59729481", "59729482"], "end": "Rua ALBA VALDEZ, 5      - JARDIM REIMBERG", "nome": "LOURIVAL BRANDAO DOS SANTOS", "tipo": "EMEF        ", "tipo_cd": 1}, "type": "Feature"}, {"geometry": {"coordinates": [-46.736612, -23.437489000000003], "type": "Point"}, "properties": {"cod": "19322", "ct": ["39410456", "39452033"], "end": "Rua HENRIQUE SALVATORI, 23     - CONJUNTO CITY JARAGUA", "nome": "CITY JARAGUA IV", "tipo": "EMEF        ", "tipo_cd": 1}, "type": "Feature"}, {"geometry": {"coordinates": [-46.689754, -23.462583], "type": "Point"}, "properties": {"cod": "19341", "ct": ["39245136", "39245271"], "end": "Rua SANTANA DO ARA\u00c7UA\u00cd, 190    - JARDIM GUARANI", "nome": "JARDIM GUARANI", "tipo": "EMEF        ", "tipo_cd": 1}, "type": "Feature"}, {"geometry": {"coordinates": [-46.75042, -23.413439999999998], "type": "Point"}, "properties": {"cod": "19347", "ct": ["39173440", "39173089", "39173440"], "end": "Rua RECANTO DOS HUMILDES, S/N    - CONJUNTO HABITACIONAL RECANTO DOS HUMILD", "nome": "JARDIM DA CONQUISTA", "tipo": "EMEF        ", "tipo_cd": 1}, "type": "Feature"}, {"geometry": {"coordinates": [-46.760585, -23.660795999999998], "type": "Point"}, "properties": {"cod": "19348", "ct": ["58127374", "55114005", "58160873"], "end": "Rua DOMENICO FONTANA, S/N    - PARQUE MARIA HELENA", "nome": "GIANFRANCESCO GUARNIERI", "tipo": "EMEF        ", "tipo_cd": 1}, "type": "Feature"}, {"geometry": {"coordinates": [-46.703941, -23.446499], "type": "Point"}, "properties": {"cod": "19349", "ct": ["39742869"], "end": "Avenida DEPUTADO CANT\u00cdDIO SAMPAIO, 4798   - VILA SOUZA", "nome": "JARDIM DAMASCENO I", "tipo": "EMEF        ", "tipo_cd": 1}, "type": "Feature"}, {"geometry": {"coordinates": [-46.681399, -23.461374], "type": "Point"}, "properties": {"cod": "19350", "ct": ["39833670", "39820066", "39833836"], "end": "Rua PEDRO POMAR, S/N    - JARDIM ELISA MARIA", "nome": "JOSE HERMINIO RODRIGUES, CEL. PM", "tipo": "EMEF        ", "tipo_cd": 1}, "type": "Feature"}, {"geometry": {"coordinates": [-46.807445, -23.440785], "type": "Point"}, "properties": {"cod": "19351", "ct": ["39163375", "39163376", "39120036", "39163375", "39163377"], "end": "Rua ANTONIO CONSELHEIRO, 1      - VILA DOS PALMARES", "nome": "MARILI DIAS , PROFA", "tipo": "EMEF        ", "tipo_cd": 1}, "type": "Feature"}, {"geometry": {"coordinates": [-46.789716, -23.647935999999998], "type": "Point"}, "properties": {"cod": "19370", "ct": ["58246912", "58246946"], "end": "Travessa WALDEMAR CORDEIRO, 101    - COHAB MONET", "nome": "JARDIM MITSUTANI I", "tipo": "EMEF        ", "tipo_cd": 1}, "type": "Feature"}, {"geometry": {"coordinates": [-46.792381, -23.730276999999997], "type": "Point"}, "properties": {"cod": "19372", "ct": ["55170228", "58990150", "55175493"], "end": "Avenida JOSE ESTIMA FILHO, 1205   - PARQUE SANTA BARBARA", "nome": "CHACARA SONHO AZUL", "tipo": "EMEF        ", "tipo_cd": 1}, "type": "Feature"}, {"geometry": {"coordinates": [-46.700347, -23.469303], "type": "Point"}, "properties": {"cod": "19394", "ct": ["39931550", "39797980"], "end": "Rua XAVIER DA SILVA FERR\u00c3O, 317    - S\u00cdTIO MORRO GRANDE", "nome": "MORRO GRANDE", "tipo": "EMEF        ", "tipo_cd": 1}, "type": "Feature"}, {"geometry": {"coordinates": [-46.660113, -23.463134], "type": "Point"}, "properties": {"cod": "19395", "ct": ["22080700", "22081011"], "end": "Rua JORNALISTA OCT\u00c1VIO RIBEIRO PENA BRANCA, 20     - VILA BELA VISTA (ZONA NORTE)", "nome": "CONJUNTO HABITACIONAL VILA NOVA CACHOEIRINHA", "tipo": "EMEF        ", "tipo_cd": 1}, "type": "Feature"}, {"geometry": {"coordinates": [-46.482211, -23.551607999999998], "type": "Point"}, "properties": {"cod": "19396", "ct": ["22177270", "22177270"], "end": "Avenida WALDEMAR TIETZ, 1521   - ARTHUR ALVIM", "nome": "SERAFIN MARTINEZ GUTIERREZ, PE.", "tipo": "EMEF        ", "tipo_cd": 1}, "type": "Feature"}, {"geometry": {"coordinates": [-46.542, -23.558467], "type": "Point"}, "properties": {"cod": "19397", "ct": ["20928982"], "end": "Rua LUT\u00c9CIA, 1730   - VILA CARR\u00c3O", "nome": "LUTECIA", "tipo": "EMEF        ", "tipo_cd": 1}, "type": "Feature"}, {"geometry": {"coordinates": [-46.430236, -23.553836999999998], "type": "Point"}, "properties": {"cod": "19398", "ct": ["25212615"], "end": "Rua \u00c1GUAS DE MAR\u00c7O, S/N    - CONJUNTO RESIDENCIAL JOS\u00c9 BONIF\u00c1CIO", "nome": "AGUAS DE MARCO", "tipo": "EMEF        ", "tipo_cd": 1}, "type": "Feature"}, {"geometry": {"coordinates": [-46.49605, -23.493098], "type": "Point"}, "properties": {"cod": "19399", "ct": ["29432822"], "end": "Rua CAICARA DO RIO DO VENTO, 367    - PARQUE CISPER", "nome": "DEP. JANUARIO MANTELLI NETO", "tipo": "EMEF        ", "tipo_cd": 1}, "type": "Feature"}, {"geometry": {"coordinates": [-46.417307, -23.510564000000002], "type": "Point"}, "properties": {"cod": "19400", "ct": ["20161357", "20161371"], "end": "Avenida FERNANDO FIGUEIREDO LINS, 194    - PARQUE SANTA RITA", "nome": "DAMA ENTRE RIOS VERDES", "tipo": "EMEF        ", "tipo_cd": 1}, "type": "Feature"}, {"geometry": {"coordinates": [-46.574576, -23.431835], "type": "Point"}, "properties": {"cod": "19401", "ct": ["22673052", "22068938"], "end": "Rua CRIS\u00c2NTEMO, 100    - JARDIM FLOR DE MAIO", "nome": "JARDIM FONTALIS", "tipo": "EMEF        ", "tipo_cd": 1}, "type": "Feature"}, {"geometry": {"coordinates": [-46.658245, -23.457478], "type": "Point"}, "properties": {"cod": "19402", "ct": ["22355657", "22581001"], "end": "Rua ANT\u00d4NIO DA FRANCA E HORTA, 35     - JARDIM PERI", "nome": "ZILKA SALABERRY DE CARVALHO", "tipo": "EMEF        ", "tipo_cd": 1}, "type": "Feature"}, {"geometry": {"coordinates": [-46.467205, -23.486531], "type": "Point"}, "properties": {"cod": "19404", "ct": ["25452276", "25451922", "25420237"], "end": "Rua CAUC\u00c1SICA, 133    - JARDIM MATARAZZO", "nome": "NEUZA AVELINO DA SILVA MELO", "tipo": "EMEF        ", "tipo_cd": 1}, "type": "Feature"}, {"geometry": {"coordinates": [-46.668977000000005, -23.475105], "type": "Point"}, "properties": {"cod": "19405", "ct": "", "end": "Avenida DEPUTADO EM\u00cdLIO CARLOS, 3871   - LIM\u00c3O", "nome": "VILA NOVA CACHOEIRINHA I", "tipo": "EMEF        ", "tipo_cd": 1}, "type": "Feature"}, {"geometry": {"coordinates": [-46.709686, -23.771592000000002], "type": "Point"}, "properties": {"cod": "19406", "ct": ["55273241", "55273242"], "end": "Rua CONSTELA\u00c7\u00c3O DO \u00cdNDIO, 41     - JARDIM CAMPINAS", "nome": "CONSTELACAO DO INDIO", "tipo": "EMEF        ", "tipo_cd": 1}, "type": "Feature"}, {"geometry": {"coordinates": [-46.463206, -23.608818], "type": "Point"}, "properties": {"cod": "19407", "ct": ["20129210", "20129209"], "end": "Rua CASTOR, 154    - CIDADE SAT\u00c9LITE SANTA B\u00c1RBARA", "nome": "VIRGINIA LORISA ZEITOUNIAN CAMARGO, PROFA", "tipo": "EMEF        ", "tipo_cd": 1}, "type": "Feature"}, {"geometry": {"coordinates": [-46.451662, -23.60491], "type": "Point"}, "properties": {"cod": "19408", "ct": ["27317730", "27317732"], "end": "Rua FRANCISCO DE MELO PALHETA, S/N    - PARQUE BOA ESPERAN\u00c7A", "nome": "PARQUE BOA ESPERANCA II", "tipo": "EMEF        ", "tipo_cd": 1}, "type": "Feature"}, {"geometry": {"coordinates": [-46.388884999999995, -23.497896], "type": "Point"}, "properties": {"cod": "19409", "ct": ["25616892", "25616880"], "end": "Rua ANT\u00d4NIO DE SOUZA AMORIM, S/N    - JARDIM S\u00c3O LU\u00cdS (ZONA LESTE)", "nome": "CDHU SAO MIGUEL PAULISTA II", "tipo": "EMEF        ", "tipo_cd": 1}, "type": "Feature"}, {"geometry": {"coordinates": [-46.418725, -23.476785], "type": "Point"}, "properties": {"cod": "19410", "ct": ["25849402", "25849411"], "end": "Rua DOS MURUR\u00c9S, 434    - JARDIM HELENA", "nome": "MURURES", "tipo": "EMEF        ", "tipo_cd": 1}, "type": "Feature"}, {"geometry": {"coordinates": [-46.749206, -23.420404], "type": "Point"}, "properties": {"cod": "19412", "ct": ["39177437", "39178944"], "end": "Rua PRINCIPAL, S/N    - JARDIM DA CONQUISTA (ZONA OESTE)", "nome": "BADRA", "tipo": "EMEF        ", "tipo_cd": 1}, "type": "Feature"}, {"geometry": {"coordinates": [-46.719565, -23.435131], "type": "Point"}, "properties": {"cod": "19413", "ct": ["39792127", "39792155"], "end": "Avenida RAIMUNDO PEREIRA DE MAGALH\u00c3ES, 12298  - JARDIM MARILU", "nome": "ELIANE BENUTE LESSA AYRES GONCALVES, PROFESSORA- NANY BENUTE", "tipo": "EMEF        ", "tipo_cd": 1}, "type": "Feature"}, {"geometry": {"coordinates": [-46.716675, -23.43488], "type": "Point"}, "properties": {"cod": "19414", "ct": ["39419300", "39420171", "39419300"], "end": "Avenida DEPUTADO CANT\u00cdDIO SAMPAIO, 6590   - VILA SOUZA", "nome": "PIRITUBA II", "tipo": "EMEF        ", "tipo_cd": 1}, "type": "Feature"}, {"geometry": {"coordinates": [-46.717406, -23.440991], "type": "Point"}, "properties": {"cod": "19415", "ct": ["39741011", "39910452"], "end": "Avenida EL\u00cdSIO TEIXEIRA LEITE, S/N    - S\u00cdTIO MORRO GRANDE", "nome": "ALICE MEIRELLES REIS, PROFA", "tipo": "EMEF        ", "tipo_cd": 1}, "type": "Feature"}, {"geometry": {"coordinates": [-46.800487, -23.591632], "type": "Point"}, "properties": {"cod": "19416", "ct": ["37823682", "37823686"], "end": "Rua JOAQUIM GUIMAR\u00c3ES, 47     - BUTANT\u00c3", "nome": "VILA MUNCK", "tipo": "EMEF        ", "tipo_cd": 1}, "type": "Feature"}, {"geometry": {"coordinates": [-46.786377, -23.602771], "type": "Point"}, "properties": {"cod": "19417", "ct": ["37827949"], "end": "Rua ENGENHEIRO HUGO TAKAHASHI, 20     - RAPOSO TAVARES", "nome": "JARDIM PAULO VI", "tipo": "EMEF        ", "tipo_cd": 1}, "type": "Feature"}, {"geometry": {"coordinates": [-46.481215999999996, -23.523785], "type": "Point"}, "properties": {"cod": "19418", "ct": ["20410840"], "end": "Rua MORRO DO DESCANSO, 160    - JARDIM S\u00c3O NICOLAU", "nome": "ALEX MARTINS COSTA, PROF, MAESTRO", "tipo": "EMEF        ", "tipo_cd": 1}, "type": "Feature"}, {"geometry": {"coordinates": [-46.64581, -23.65227], "type": "Point"}, "properties": {"cod": "19419", "ct": ["50111220"], "end": "Rua CRUZ DAS ALMAS, 74     - VILA CAMPESTRE", "nome": "ANA MARIA ALVES BENETTI, PROFA", "tipo": "EMEF        ", "tipo_cd": 1}, "type": "Feature"}, {"geometry": {"coordinates": [-46.663446, -23.676056], "type": "Point"}, "properties": {"cod": "19420", "ct": ["56226079", "56225684"], "end": "Rua ESTAMPA ESPORTIVA, 55     - AMERICAN\u00d3POLIS", "nome": "CIDADE ADEMAR I", "tipo": "EMEF        ", "tipo_cd": 1}, "type": "Feature"}, {"geometry": {"coordinates": [-46.792244000000004, -23.679289], "type": "Point"}, "properties": {"cod": "19421", "ct": ["58217196", "58216101"], "end": "Rua TAJAL, S/N    - CONJUNTO HABITACIONAL JARDIM S\u00c3O BENTO", "nome": "JOSE FRANCISCO CAVALCANTE, PROF.", "tipo": "EMEF        ", "tipo_cd": 1}, "type": "Feature"}, {"geometry": {"coordinates": [-46.743046, -23.665924], "type": "Point"}, "properties": {"cod": "19422", "ct": ["58910685", "58910042", "58900346"], "end": "Rua NOVA DO TUPAROQUERA, 2100   - JARDIM NOVO SANTO AMARO", "nome": "M BOI MIRIM I", "tipo": "EMEF        ", "tipo_cd": 1}, "type": "Feature"}, {"geometry": {"coordinates": [-46.748763000000004, -23.662663000000002], "type": "Point"}, "properties": {"cod": "19423", "ct": ["58916745", "58916527"], "end": "Rua JOS\u00c9 MANOEL CAMISA NOVA, 552    - PARQUE SANTO ANT\u00d4NIO", "nome": "M BOI MIRIM II", "tipo": "EMEF        ", "tipo_cd": 1}, "type": "Feature"}, {"geometry": {"coordinates": [-46.766983, -23.680178], "type": "Point"}, "properties": {"cod": "19424", "ct": ["58333056"], "end": "Rua JACQUES LE MERCIER, 7      - JARDIM MARIANE", "nome": "MARLI FERRAZ TORRES BONFIM", "tipo": "EMEF        ", "tipo_cd": 1}, "type": "Feature"}, {"geometry": {"coordinates": [-46.419237, -23.595238000000002], "type": "Point"}, "properties": {"cod": "19425", "ct": ["27317766"], "end": "Avenida DO PROGRESSO, 100    - JARDIM MARILU", "nome": "CDHU JARDIM IGUATEMI", "tipo": "EMEF        ", "tipo_cd": 1}, "type": "Feature"}, {"geometry": {"coordinates": [-46.404902, -23.524437], "type": "Point"}, "properties": {"cod": "19426", "ct": ["25117935"], "end": "Rua AMPARO DA SERRA, 196    - PARQUE DOM JO\u00c3O NERI", "nome": "MARISA MORETTI CAMARA, PROFA.", "tipo": "EMEF        ", "tipo_cd": 1}, "type": "Feature"}, {"geometry": {"coordinates": [-46.605177000000005, -23.648918], "type": "Point"}, "properties": {"cod": "19427", "ct": ["23341370", "23340022"], "end": "Rua JOS\u00c9 PEREIRA CRUZ, 95     - PARQUE BRISTOL", "nome": "HERCILIA DE CAMPOS COSTA", "tipo": "EMEF        ", "tipo_cd": 1}, "type": "Feature"}, {"geometry": {"coordinates": [-46.759264, -23.630902], "type": "Point"}, "properties": {"cod": "19428", "ct": ["58446286", "58446294", "58430724"], "end": "Rua PROFESSORA NINA STOCCO, 597    - JARDIM CATANDUVA", "nome": "SOCRATES BRASILEIRO SAMPAIO DE SOUSA VIEIRA DE OLIVEIRA", "tipo": "EMEF        ", "tipo_cd": 1}, "type": "Feature"}, {"geometry": {"coordinates": [-46.7941, -23.677093], "type": "Point"}, "properties": {"cod": "19430", "ct": ["58215820", "58214972"], "end": "Avenida ANDORINHA-DOS-BEIRAIS, S/N    - JARDIM DOM JOS\u00c9", "nome": "CAMPO LIMPO III", "tipo": "EMEF        ", "tipo_cd": 1}, "type": "Feature"}, {"geometry": {"coordinates": [-46.749814, -23.637946], "type": "Point"}, "properties": {"cod": "19431", "ct": ["58111011", "58111008", "58160917"], "end": "Rua FRANCISCO SOARES, 487    - PARQUE REGINA", "nome": "MILLOR FERNANDES, JORNALISTA", "tipo": "EMEF        ", "tipo_cd": 1}, "type": "Feature"}, {"geometry": {"coordinates": [-46.381345, -23.515043], "type": "Point"}, "properties": {"cod": "19433", "ct": ["21566970", "25667456"], "end": "Rua MANUEL RODRIGUES SANTIAGO, 809    - JARDIM LAURA", "nome": "ITAIM A", "tipo": "EMEF        ", "tipo_cd": 1}, "type": "Feature"}, {"geometry": {"coordinates": [-46.786737, -23.677672], "type": "Point"}, "properties": {"cod": "19434", "ct": ["58242948", "58243158"], "end": "Rua ALGARD, S/N    - CONJUNTO HABITACIONAL JARDIM S\u00c3O BENTO", "nome": "CAMPO LIMPO II", "tipo": "EMEF        ", "tipo_cd": 1}, "type": "Feature"}, {"geometry": {"coordinates": [-46.713756, -23.758578], "type": "Point"}, "properties": {"cod": "19436", "ct": ["59255042", "59255043"], "end": "Rua HANS CHRISTIAN ANDERSEN, 67     - GRANJA NOSSA SENHORA APARECIDA", "nome": "CARLOS FRANCISCO GASPAR", "tipo": "EMEF        ", "tipo_cd": 1}, "type": "Feature"}, {"geometry": {"coordinates": [-46.390965, -23.544168], "type": "Point"}, "properties": {"cod": "19437", "ct": ["29610086", "25544503", "25530041"], "end": "Rua ALESSIO PRATI 42, 42     - VILA IOLANDA", "nome": "DIAS GOMES", "tipo": "EMEF        ", "tipo_cd": 1}, "type": "Feature"}, {"geometry": {"coordinates": [-46.704464, -23.744845], "type": "Point"}, "properties": {"cod": "19439", "ct": ["59274253", "59274286"], "end": "Rua FRANCESCO BARTOLOZZI, 1      - JARDIM ICARA\u00cd", "nome": "ALDINA ANALIA AGOSTINHA TADDEO CONDE, PROFA", "tipo": "EMEF        ", "tipo_cd": 1}, "type": "Feature"}, {"geometry": {"coordinates": [-46.6961, -23.714389999999998], "type": "Point"}, "properties": {"cod": "19440", "ct": ["56674741", "56674753"], "end": "Rua ANT\u00d4NIO CALIXTO DA SILVA, 85     - VILA SANTA MARIA", "nome": "GENY MARIA MUNIZ ALMEIDA KLEIN PUSSINELLI, PROFA.", "tipo": "EMEF        ", "tipo_cd": 1}, "type": "Feature"}, {"geometry": {"coordinates": [-46.392587, -23.585407], "type": "Point"}, "properties": {"cod": "19443", "ct": ["22853094", "22853262"], "end": "Rua ALFONSO ASTURARO, S/N    - CONJUNTO HABITACIONAL BARRO BRANCO II", "nome": "MEIRE DE JESUS RIBEIRO,PROF.", "tipo": "EMEF        ", "tipo_cd": 1}, "type": "Feature"}, {"geometry": {"coordinates": [-46.731179, -23.445479000000002], "type": "Point"}, "properties": {"cod": "19445", "ct": ["39495366"], "end": "Rua PHILONILIA GONCALVES DOS SANTOS, S/N    - JARAGUA", "nome": "ROGE FERREIRA, DEP.", "tipo": "EMEF        ", "tipo_cd": 1}, "type": "Feature"}, {"geometry": {"coordinates": [-46.392045, -23.57648], "type": "Point"}, "properties": {"cod": "19447", "ct": ["25552375", "25550478", "25550846", "25552667"], "end": "Rua CONJUNTO S\u00cdTIO CONCEI\u00c7\u00c3O, 283    - CONJUNTO HABITACIONAL SITIO CONCEI\u00c7\u00c3O", "nome": "JOEL FERNANDES DE SOUZA", "tipo": "EMEF        ", "tipo_cd": 1}, "type": "Feature"}, {"geometry": {"coordinates": [-46.375481, -23.506262], "type": "Point"}, "properties": {"cod": "19449", "ct": ["25666202", "25665773", "36789813"], "end": "Rua VISCONDE DE GUEDES TEIXEIRA, 145    - ITAIM PAULISTA", "nome": "JURANDI GOMES DE ARAUJO, PROF.", "tipo": "EMEF        ", "tipo_cd": 1}, "type": "Feature"}, {"geometry": {"coordinates": [-46.503091999999995, -23.601954], "type": "Point"}, "properties": {"cod": "19454", "ct": ["27026905", "27026842"], "end": "Avenida ARQUITETO VILANOVA ARTIGAS, 1471   - CONJUNTO HABITACIONAL TEOTONIO VILELA", "nome": "BARTOLOMEU CAMPOS DE QUEIROS", "tipo": "EMEF        ", "tipo_cd": 1}, "type": "Feature"}, {"geometry": {"coordinates": [-46.416837, -23.565498], "type": "Point"}, "properties": {"cod": "19455", "ct": ["25182935", "25182728"], "end": "Rua HENRIQUE ADAMUS, 15     - JARDIM \u00c1UREA", "nome": "PROFESSORA CELIA REGINA ANDERY GRAGA", "tipo": "EMEF        ", "tipo_cd": 1}, "type": "Feature"}, {"geometry": {"coordinates": [-46.412921999999995, -23.578746], "type": "Point"}, "properties": {"cod": "19456", "ct": ["25166289", "25166441"], "end": "Rua ARROIO SARANDI, 284    - CONJUNTO HABITACIONAL SANTA ETELVINA III", "nome": "HELINA COUTINHO LOURENCO ALVES, PROFESSORA", "tipo": "EMEF        ", "tipo_cd": 1}, "type": "Feature"}, {"geometry": {"coordinates": [-46.397309, -23.570973000000002], "type": "Point"}, "properties": {"cod": "19457", "ct": ["20166058", "20166038"], "end": "Travessa S\u00cdLVIO CALDAS, S/N    - JARDIM WILMA FLOR", "nome": "MARIA APARECIDA MAGNANELLI FERNANDES, PROFA", "tipo": "EMEF        ", "tipo_cd": 1}, "type": "Feature"}, {"geometry": {"coordinates": [-46.703477, -23.482719], "type": "Point"}, "properties": {"cod": "19458", "ct": ["39787717"], "end": "Rua ARAUAZINHO, S/N    - VILA MARINA", "nome": "MARIA APARECIDA RODRIGUES CINTRA, PROFA.", "tipo": "EMEF        ", "tipo_cd": 1}, "type": "Feature"}, {"geometry": {"coordinates": [-46.457213, -23.631023000000003], "type": "Point"}, "properties": {"cod": "19460", "ct": ["22534861"], "end": "Rua BANDEIRA DE ARACAMBI, 707    - JARDIM RODOLFO PIRANI", "nome": "JARDIM RODOLFO PIRANI I", "tipo": "EMEF        ", "tipo_cd": 1}, "type": "Feature"}, {"geometry": {"coordinates": [-46.709855, -23.461854000000002], "type": "Point"}, "properties": {"cod": "19462", "ct": ["39741365", "39741138"], "end": "Rua ENCRUZILHADA DO SUL, 1005   - JARDIM PAULISTANO (ZONA NORTE)", "nome": "LILIAN MASO, PROFA", "tipo": "EMEF        ", "tipo_cd": 1}, "type": "Feature"}, {"geometry": {"coordinates": [-46.737629999999996, -23.455955], "type": "Point"}, "properties": {"cod": "19463", "ct": ["39430125", "39424200", "39425517"], "end": "Rua JO\u00c3O AIRES, S/N    - JARDIM BANDEIRANTES (ZONA NORTE)", "nome": "ESTA\u00c7\u00c3O JARAGU\u00c1", "tipo": "EMEF        ", "tipo_cd": 1}, "type": "Feature"}, {"geometry": {"coordinates": [-46.63151, -23.697701000000002], "type": "Point"}, "properties": {"cod": "19465", "ct": ["56728962", "56728956"], "end": "Rua DOS BOR\u00d4S, S/N    - VILA GUACURI", "nome": "AMELIA RODRIGUES DE OLIVEIRA, PROFA", "tipo": "EMEF        ", "tipo_cd": 1}, "type": "Feature"}, {"geometry": {"coordinates": [-46.72931, -23.621523], "type": "Point"}, "properties": {"cod": "19466", "ct": ["35020193", "37429505", "37423573"], "end": "Rua JOS\u00c9 PEDRO DE CARVALHO LIMA, 150    - JARDIM PARQUE MORUMBI", "nome": "PERIMETRAL", "tipo": "EMEF        ", "tipo_cd": 1}, "type": "Feature"}, {"geometry": {"coordinates": [-46.707166, -23.861685], "type": "Point"}, "properties": {"cod": "19474", "ct": ["59216735", "59217034"], "end": "Rua IP\u00ca-ROXO, 82     - COL\u00d4NIA (ZONA SUL)", "nome": "VARGEM GRANDE II", "tipo": "EMEF        ", "tipo_cd": 1}, "type": "Feature"}, {"geometry": {"coordinates": [-46.413465, -23.593132], "type": "Point"}, "properties": {"cod": "19476", "ct": ["22823595", "22855219"], "end": "Rua EDSON DANILLO DOTTO, 700    - CONJUNTO HABITACIONAL SANTA ETELVINA II", "nome": "MARIA APARECIDA DO NASCIMENTO, PROFA.", "tipo": "EMEF        ", "tipo_cd": 1}, "type": "Feature"}, {"geometry": {"coordinates": [-46.597609999999996, -23.609775], "type": "Point"}, "properties": {"cod": "19480", "ct": ["20633663", "22721262"], "end": "Rua ALENCAR ARARIPE, 261    - SACOM\u00c3", "nome": "ABRAO HUCK, DR.", "tipo": "EMEF        ", "tipo_cd": 1}, "type": "Feature"}, {"geometry": {"coordinates": [-46.755221, -23.473434], "type": "Point"}, "properties": {"cod": "19487", "ct": ["39015870", "39022546"], "end": "Rua AGNES FONTOURA, 87     - CONJUNTO HABITACIONAL TUR\u00cdSTICA", "nome": "CHACARA TURISTICA", "tipo": "EMEF        ", "tipo_cd": 1}, "type": "Feature"}, {"geometry": {"coordinates": [-46.575373, -23.519504], "type": "Point"}, "properties": {"cod": "19488", "ct": ["26314484", "26314481"], "end": "Rua NOSSA SENHORA DA APARECIDA, 15     - PARQUE VILA MARIA", "nome": "PAULO CARNEIRO THOMAZ ALVES, GAL.", "tipo": "EMEF        ", "tipo_cd": 1}, "type": "Feature"}, {"geometry": {"coordinates": [-46.76076, -23.725784], "type": "Point"}, "properties": {"cod": "19492", "ct": ["55172398", "55173098"], "end": "Avenida PERATUBA, S/N    - CIDADE IPAVA", "nome": "EDIVALDO DOS SANTOS DANTAS, PROF,", "tipo": "EMEF        ", "tipo_cd": 1}, "type": "Feature"}, {"geometry": {"coordinates": [-46.700718, -23.825884], "type": "Point"}, "properties": {"cod": "19496", "ct": ["59219520", "59210052"], "end": "Rua BEL\u00c9M, S/N    - JARDIM PAPAI NOEL", "nome": "PLINIO MARCOS", "tipo": "EMEF        ", "tipo_cd": 1}, "type": "Feature"}, {"geometry": {"coordinates": [-46.79242, -23.689258], "type": "Point"}, "properties": {"cod": "19500", "ct": ["58732695", "58732818"], "end": "Rua CORTEGACA, 240    - JARDIM GUARUJ\u00c1", "nome": "HERBERT DE SOUZA - BETINHO", "tipo": "EMEF        ", "tipo_cd": 1}, "type": "Feature"}, {"geometry": {"coordinates": [-46.405272, -23.51361], "type": "Point"}, "properties": {"cod": "19503", "ct": ["25714432 ", "25618190"], "end": "Estrada DOM JO\u00c3O NERY, 2404   - VILA LOURDES", "nome": "JARDIM BARTIRA", "tipo": "EMEF        ", "tipo_cd": 1}, "type": "Feature"}, {"geometry": {"coordinates": [-46.441520000000004, -23.524687], "type": "Point"}, "properties": {"cod": "19505", "ct": ["20511513"], "end": "Rua CH\u00c1 DOS JESU\u00cdTAS, 72     - VILA PROGRESSO (ZONA LESTE)", "nome": "CRIUVA", "tipo": "EMEF        ", "tipo_cd": 1}, "type": "Feature"}, {"geometry": {"coordinates": [-46.466947999999995, -23.500383], "type": "Point"}, "properties": {"cod": "19506", "ct": ["20316004", "20311505"], "end": "Rua HENRIQUE XAVIER DE BRITO, 221    - JARDIM PEDRO JOS\u00c9 NUNES", "nome": "VILA JACUI", "tipo": "EMEF        ", "tipo_cd": 1}, "type": "Feature"}, {"geometry": {"coordinates": [-46.445345, -23.50874], "type": "Point"}, "properties": {"cod": "19507", "ct": ["20516394", "20516206"], "end": "Rua FAVEIRA DO MATO, 530    - JARDIM PLANALTO", "nome": "PEDRO FUKUYEI YAMAGUCHI FERREIRA", "tipo": "EMEF        ", "tipo_cd": 1}, "type": "Feature"}, {"geometry": {"coordinates": [-46.449018, -23.602469], "type": "Point"}, "properties": {"cod": "19509", "ct": ["22533669"], "end": "Rua CURUMATIM, 390    - PARQUE BOA ESPERAN\u00c7A", "nome": "ACLAMADO", "tipo": "EMEF        ", "tipo_cd": 1}, "type": "Feature"}, {"geometry": {"coordinates": [-46.770598, -23.676898], "type": "Point"}, "properties": {"cod": "19526", "ct": ["58725454"], "end": "Rua RICHARD BOYLE, 80     - JARDIM S\u00c3O JOS\u00c9", "nome": "DONATO SUSUMU KIMURA", "tipo": "EMEF        ", "tipo_cd": 1}, "type": "Feature"}, {"geometry": {"coordinates": [-46.407752, -23.501273], "type": "Point"}, "properties": {"cod": "19529", "ct": ["25665653", "25666137"], "end": "Rua FRED ASTAIRE, 167    - JARDIM SILVA TELES", "nome": "JARDIM SILVA TELES", "tipo": "EMEF        ", "tipo_cd": 1}, "type": "Feature"}, {"geometry": {"coordinates": [-46.614203, -23.6574], "type": "Point"}, "properties": {"cod": "19569", "ct": ["23317700", "23343500"], "end": "Rua AT\u00cdLIO SELVA, 16     - JARDIM CELESTE", "nome": "ROBERTO PLINIO COLACIOPPO, PROF.", "tipo": "EMEF        ", "tipo_cd": 1}, "type": "Feature"}, {"geometry": {"coordinates": [-46.416743, -23.614551000000002], "type": "Point"}, "properties": {"cod": "19585", "ct": ["27319322", "27319636"], "end": "Rua GIOVANNI MOSEL, 73     - RECANTO VERDE DO SOL", "nome": "WLADIMIR DE TOLEDO PIZA,PREF.", "tipo": "EMEF        ", "tipo_cd": 1}, "type": "Feature"}, {"geometry": {"coordinates": [-46.728879, -23.428437], "type": "Point"}, "properties": {"cod": "19607", "ct": ["39424980", "39453885"], "end": "Rua PR\u00cdNCIPE, 38     - JARDIM SHANGRIL\u00c1 (ZONA NORTE)", "nome": "ANTONIO RODRIGUES DE CAMPOS, PROF", "tipo": "EMEF        ", "tipo_cd": 1}, "type": "Feature"}, {"geometry": {"coordinates": [-46.442445, -23.598677], "type": "Point"}, "properties": {"cod": "19615", "ct": ["27318414", "27320005"], "end": "Rua OSCAR MULLER, 135    - JARDIM IGUATEMI", "nome": "JD IGUATEMI", "tipo": "EMEF        ", "tipo_cd": 1}, "type": "Feature"}, {"geometry": {"coordinates": [-46.644878000000006, -23.472888], "type": "Point"}, "properties": {"cod": "19631", "ct": ["22336379", "22336379", "22326988"], "end": "Avenida CORONEL MANUEL PY, 168    - LAUZANE PAULISTA", "nome": "PROFA. NILCE CRUZ FIGUEIREDO", "tipo": "EMEF        ", "tipo_cd": 1}, "type": "Feature"}, {"geometry": {"coordinates": [-46.424386, -23.565499], "type": "Point"}, "properties": {"cod": "19691", "ct": ["25227057", "25230523"], "end": "Rua PAINA, 50     - COL\u00d4NIA (ZONA LESTE)", "nome": "GOV. MARIO COVAS", "tipo": "EMEF        ", "tipo_cd": 1}, "type": "Feature"}, {"geometry": {"coordinates": [-46.675346000000005, -23.451335], "type": "Point"}, "properties": {"cod": "19704", "ct": ["39828396", "39842202"], "end": "Avenida INAJAR DE SOUZA, 6975   - JARDIM PERI", "nome": "PRIMO PASCOLI MELARE, PROF.", "tipo": "EMEF        ", "tipo_cd": 1}, "type": "Feature"}, {"geometry": {"coordinates": [-46.738559, -23.673652], "type": "Point"}, "properties": {"cod": "19712", "ct": ["58916564", "58920095", "58946718"], "end": "Rua BARBOSA VILAS BOAS, 251    - JARDIM DAS FLORES", "nome": "PROFA. MARIA BERENICE DOS SANTOS", "tipo": "EMEF        ", "tipo_cd": 1}, "type": "Feature"}, {"geometry": {"coordinates": [-46.79769, -23.67795], "type": "Point"}, "properties": {"cod": "87319", "ct": ["58248274", "58220038", "58215083"], "end": "Rua ACARIRANA, 51     - JARDIM DOM JOS\u00c9", "nome": "THEODOMIRO MONTEIRO DO AMARAL, PROF.", "tipo": "EMEF        ", "tipo_cd": 1}, "type": "Feature"}, {"geometry": {"coordinates": [-46.650591, -23.51175], "type": "Point"}, "properties": {"cod": "91804", "ct": ["38581892", "39664317"], "end": "Rua BRAZELISA ALVES DE CARVALHO, 356    - VILA BARUEL", "nome": "PAULO NOGUEIRA FILHO", "tipo": "EMEF        ", "tipo_cd": 1}, "type": "Feature"}, {"geometry": {"coordinates": [-46.510166, -23.615571], "type": "Point"}, "properties": {"cod": "92622", "ct": ["27038600"], "end": "Rua PALMEIRA BACABA, 39     - JARDIM ELBA", "nome": "ARLINDO CAETANO FILHO, PROF", "tipo": "EMEF        ", "tipo_cd": 1}, "type": "Feature"}, {"geometry": {"coordinates": [-46.705278, -23.607777], "type": "Point"}, "properties": {"cod": "92681", "ct": ["37591520", "37591520"], "end": "Rua MATTIA FILIZZOLA, 76     - REAL PARQUE", "nome": "JOSE DE ALCANTARA MACHADO FILHO", "tipo": "EMEF        ", "tipo_cd": 1}, "type": "Feature"}, {"geometry": {"coordinates": [-46.729251, -23.574501], "type": "Point"}, "properties": {"cod": "92690", "ct": ["37261119", "37268049", "37261119"], "end": "Rua PROFESSOR VICENTE PEIXOTO, 50     - VILA GOMES", "nome": "AMORIM LIMA, DES", "tipo": "EMEF        ", "tipo_cd": 1}, "type": "Feature"}, {"geometry": {"coordinates": [-46.730758, -23.594471], "type": "Point"}, "properties": {"cod": "92703", "ct": ["37715304", "37425858"], "end": "Pra\u00e7a DOUTOR JOSE ORIA, S/N    - VILA SONIA", "nome": "THEODOMIRO DIAS, DES", "tipo": "EMEF        ", "tipo_cd": 1}, "type": "Feature"}, {"geometry": {"coordinates": [-46.72403, -23.582732999999998], "type": "Point"}, "properties": {"cod": "92711", "ct": ["37213843", "37224371"], "end": "Pra\u00e7a IMPRENSA PAULISTA, 30     - CAXINGUI", "nome": "MAL. DEODORO DA FONSECA", "tipo": "EMEF        ", "tipo_cd": 1}, "type": "Feature"}, {"geometry": {"coordinates": [-46.735918, -23.596401999999998], "type": "Point"}, "properties": {"cod": "92720", "ct": ["37425772"], "end": "Rua ANDRE SARAIVA, 860    - VILA SONIA", "nome": "ARTHUR WHITAKER, DES", "tipo": "EMEF        ", "tipo_cd": 1}, "type": "Feature"}, {"geometry": {"coordinates": [-46.756771, -23.597878], "type": "Point"}, "properties": {"cod": "92738", "ct": ["37510223", "37515250"], "end": "Rua NATAL PIGASSI, 787    - JARDIM CELESTE", "nome": "TARSILA DO AMARAL", "tipo": "EMEF        ", "tipo_cd": 1}, "type": "Feature"}, {"geometry": {"coordinates": [-46.772909000000006, -23.58834], "type": "Point"}, "properties": {"cod": "92746", "ct": ["37824068"], "end": "Rua NICOLAU COPERNICO, 165    - JARDIM BATAGLIA", "nome": "ALIPIO ANDRADA SERPA, TTE", "tipo": "EMEF        ", "tipo_cd": 1}, "type": "Feature"}, {"geometry": {"coordinates": [-46.791369, -23.594749], "type": "Point"}, "properties": {"cod": "92754", "ct": ["37821862", "37829744"], "end": "Rua ADHERBAL STRESSER, 686    - JARDIM ARPOADOR", "nome": "GEN. ALCIDES GONCALVES ETCHEGOYEN", "tipo": "EMEF        ", "tipo_cd": 1}, "type": "Feature"}, {"geometry": {"coordinates": [-46.792165999999995, -23.598579], "type": "Point"}, "properties": {"cod": "92762", "ct": ["37820750", "37840502"], "end": "Rua C\u00d4NEGO LU\u00cdS VIEIRA DA SILVA, 201    - JARDIM JO\u00c3O XXIII", "nome": "JOAO XXIII", "tipo": "EMEF        ", "tipo_cd": 1}, "type": "Feature"}, {"geometry": {"coordinates": [-46.79133, -23.584001999999998], "type": "Point"}, "properties": {"cod": "92771", "ct": ["37811914", "37824889", "37840243"], "end": "Rua GABRIEL DE CARVALHO, 60     - JARDIM BOA VISTA", "nome": "SOLANO TRINDADE", "tipo": "EMEF        ", "tipo_cd": 1}, "type": "Feature"}, {"geometry": {"coordinates": [-46.774966, -23.573811], "type": "Point"}, "properties": {"cod": "92789", "ct": ["37825470", "37829747"], "end": "Avenida PADRE TIAGO ALBERIONE, 150    - PARQUE DOS PR\u00cdNCIPES", "nome": "CDE. LUIZ EDUARDO MATARAZZO", "tipo": "EMEF        ", "tipo_cd": 1}, "type": "Feature"}, {"geometry": {"coordinates": [-46.735794, -23.581353], "type": "Point"}, "properties": {"cod": "92797", "ct": ["37310234", "37354382"], "end": "Rua JOSE AIRES NETO, 25     - JARDIM BONFIGLIOLI", "nome": "JULIO DE MESQUITA", "tipo": "EMEF        ", "tipo_cd": 1}, "type": "Feature"}, {"geometry": {"coordinates": [-46.753021999999994, -23.57535], "type": "Point"}, "properties": {"cod": "92801", "ct": ["37316153", "37354381"], "end": "Rua CORONEL SALVADOR DE MOYA, 263    - VILA ALBA", "nome": "IBRAHIM NOBRE", "tipo": "EMEF        ", "tipo_cd": 1}, "type": "Feature"}, {"geometry": {"coordinates": [-46.761340000000004, -23.573464], "type": "Point"}, "properties": {"cod": "92819", "ct": "", "end": "Rua DOUTOR PAULO CARVALHO FERREIRA, 94     - JARDIM SARAH", "nome": "BRASIL-JAPAO", "tipo": "EMEF        ", "tipo_cd": 1}, "type": "Feature"}, {"geometry": {"coordinates": [-46.764287, -23.564172], "type": "Point"}, "properties": {"cod": "92827", "ct": ["37120676", "37120676"], "end": "Rua PADRE PAULO CANELLES, 611    - VILA DALVA", "nome": "ALVARO SILVA BRAGA, GEN", "tipo": "EMEF        ", "tipo_cd": 1}, "type": "Feature"}, {"geometry": {"coordinates": [-46.752882, -23.553271], "type": "Point"}, "properties": {"cod": "92835", "ct": ["37682898"], "end": "Rua GUIMAR\u00c3ES ROSA, 115    - VILA LAGEADO", "nome": "ESPIRIDIAO ROSAS, MAL.", "tipo": "EMEF        ", "tipo_cd": 1}, "type": "Feature"}, {"geometry": {"coordinates": [-46.758297, -23.585791], "type": "Point"}, "properties": {"cod": "92843", "ct": ["37826700", "37829758", "37826700"], "end": "Rua JOSE CERQUEIRA BASTOS, 46     - JARDIM ESTER", "nome": "ROBERTO MANGE, PROF.", "tipo": "EMEF        ", "tipo_cd": 1}, "type": "Feature"}, {"geometry": {"coordinates": [-46.758491, -23.557431], "type": "Point"}, "properties": {"cod": "92851", "ct": ["37660002", "37684542", "37664380"], "end": "Rua MARECHAL OLIMPIO MOURAO FILHO, 187    - CIDADE SAO FRANCISCO", "nome": "GEN. EUCLYDES DE OLIVEIRA FIGUEIREDO", "tipo": "EMEF        ", "tipo_cd": 1}, "type": "Feature"}, {"geometry": {"coordinates": [-46.747273, -23.671472], "type": "Point"}, "properties": {"cod": "92860", "ct": ["58910875", "55143074"], "end": "Rua HUMBERTO DE ALMEIDA, 521    - CHACARA SANTANA", "nome": "BEL. MARIO MOURA E ALBUQUERQUE", "tipo": "EMEF        ", "tipo_cd": 1}, "type": "Feature"}, {"geometry": {"coordinates": [-46.756357, -23.684028], "type": "Point"}, "properties": {"cod": "92878", "ct": ["55140049", "58900373", "55146823"], "end": "Rua JOAO FERREIRA DA SILVA, 99     - JARDIM SANTA MARGARIDA", "nome": "PROFA. CAROLINA RENNO RIBEIRO DE OLIVEIRA", "tipo": "EMEF        ", "tipo_cd": 1}, "type": "Feature"}, {"geometry": {"coordinates": [-46.763578, -23.686526], "type": "Point"}, "properties": {"cod": "92886", "ct": ["58310046", "58320007", "58311942"], "end": "Rua PROFESSOR BARROSO DO AMARAL, 694    - JARDIM PLANALTO", "nome": "OLIVEIRA VIANA", "tipo": "EMEF        ", "tipo_cd": 1}, "type": "Feature"}, {"geometry": {"coordinates": [-46.771534, -23.689021], "type": "Point"}, "properties": {"cod": "92894", "ct": ["58310145", "58320051"], "end": "Rua MARCELINO COELHO, 297    - JARDIM \u00c2NGELA (ZONA SUL)", "nome": "PROF. MARIO MARQUES DE OLIVEIRA", "tipo": "EMEF        ", "tipo_cd": 1}, "type": "Feature"}, {"geometry": {"coordinates": [-46.772256, -23.697736], "type": "Point"}, "properties": {"cod": "92908", "ct": ["58310521", "58338282", "58320536"], "end": "Rua INACIO PARREIRAS NEVES, 17     - JARDIM NAKAMURA", "nome": "PROF. CLEMENTE PASTORE", "tipo": "EMEF        ", "tipo_cd": 1}, "type": "Feature"}, {"geometry": {"coordinates": [-46.783175, -23.699426000000003], "type": "Point"}, "properties": {"cod": "92916", "ct": ["58310364", "58320556"], "end": "Rua CERDEIRA, 7      - PARQUE NOVO SANTO AMARO", "nome": "ANTONIO ESTANISLAU DO AMARAL", "tipo": "EMEF        ", "tipo_cd": 1}, "type": "Feature"}, {"geometry": {"coordinates": [-46.773179999999996, -23.673773999999998], "type": "Point"}, "properties": {"cod": "92924", "ct": ["58709311", "58701354", "58726464"], "end": "Avenida COMENDADOR SANTANNA, 821    - CAPAO REDONDO", "nome": "CEL. MARIO RANGEL", "tipo": "EMEF        ", "tipo_cd": 1}, "type": "Feature"}, {"geometry": {"coordinates": [-46.799837, -23.686989999999998], "type": "Point"}, "properties": {"cod": "92932", "ct": ["58732970", "58735574", "58701140"], "end": "Avenida FEITICO DA VILA, 915    - CHACARA SANTA MARIA", "nome": "PROF. JORGE AMERICANO", "tipo": "EMEF        ", "tipo_cd": 1}, "type": "Feature"}, {"geometry": {"coordinates": [-46.779466, -23.671517], "type": "Point"}, "properties": {"cod": "92941", "ct": ["58732676"], "end": "Rua DA COSTA NOVA DO PRADO, 108    - JARDIM COMERCIAL", "nome": "EUCLIDES DA CUNHA", "tipo": "EMEF        ", "tipo_cd": 1}, "type": "Feature"}, {"geometry": {"coordinates": [-46.785921, -23.661102], "type": "Point"}, "properties": {"cod": "92959", "ct": ["58241404", "58220311"], "end": "Avenida DOM RODRIGO SANCHES, 672    - PARQUE DO ENGENHO", "nome": "PROFA. IRACEMA MARQUES DA SILVEIRA", "tipo": "EMEF        ", "tipo_cd": 1}, "type": "Feature"}, {"geometry": {"coordinates": [-46.774099, -23.650211], "type": "Point"}, "properties": {"cod": "92967", "ct": ["58248895", "58251409", "58220627"], "end": "Rua GOLPAZARI, 10     - JARDIM VALE DAS VIRTUDES", "nome": "PROF. LEVY DE AZEVEDO SODRE", "tipo": "EMEF        ", "tipo_cd": 1}, "type": "Feature"}, {"geometry": {"coordinates": [-46.755091, -23.659536], "type": "Point"}, "properties": {"cod": "92975", "ct": ["58162564", "55113424", "58161155"], "end": "Rua RAIMUNDA FRANKLIN DE MELO, 184    - PARQUE SANTO ANTONIO", "nome": "OTONIEL MOTA", "tipo": "EMEF        ", "tipo_cd": 1}, "type": "Feature"}, {"geometry": {"coordinates": [-46.747495, -23.655614], "type": "Point"}, "properties": {"cod": "92983", "ct": ["58161156", "55120287"], "end": "Avenida FIM DE SEMANA, 527    - JARDIM CASABLANCA", "nome": "PROCOPIO FERREIRA", "tipo": "EMEF        ", "tipo_cd": 1}, "type": "Feature"}, {"geometry": {"coordinates": [-46.746097999999996, -23.658666], "type": "Point"}, "properties": {"cod": "92991", "ct": ["55113687"], "end": "Rua FREI LU\u00cdS BELTR\u00c3O, 5      - CONJUNTO PROMORAR S\u00c3O LUIS", "nome": "AIRTON ARANTES RIBEIRO, PROF", "tipo": "EMEF        ", "tipo_cd": 1}, "type": "Feature"}, {"geometry": {"coordinates": [-46.751277, -23.646657], "type": "Point"}, "properties": {"cod": "93009", "ct": ["58161409", "55130018"], "end": "Rua BALDOMERO CARQUEJA, 278    - VILA PREL", "nome": "CEL. LUIZ TENORIO DE BRITO", "tipo": "EMEF        ", "tipo_cd": 1}, "type": "Feature"}, {"geometry": {"coordinates": [-46.76073, -23.638568], "type": "Point"}, "properties": {"cod": "93017", "ct": ["58415095", "58430039"], "end": "Rua GIOVANNI AMADEO, 187    - JARDIM CATANDUVA", "nome": "ADHEMAR DE BARROS, PREF", "tipo": "EMEF        ", "tipo_cd": 1}, "type": "Feature"}, {"geometry": {"coordinates": [-46.762577, -23.635162], "type": "Point"}, "properties": {"cod": "93025", "ct": ["58428080", "58413943", "58430762"], "end": "Rua MANUEL RIBEIRO DE AZEVEDO, S/N    - JARDIM CATANDUVA", "nome": "PALIMERCIO DE REZENDE, CEL.", "tipo": "EMEF        ", "tipo_cd": 1}, "type": "Feature"}, {"geometry": {"coordinates": [-46.768827, -23.630001], "type": "Point"}, "properties": {"cod": "93033", "ct": ["58410624", "58426890", "58430293"], "end": "Rua KUNITO MIYASAKA, 54     - JARDIM MARTINICA", "nome": "MAURICIO SIMAO", "tipo": "EMEF        ", "tipo_cd": 1}, "type": "Feature"}, {"geometry": {"coordinates": [-46.773707, -23.633285], "type": "Point"}, "properties": {"cod": "93041", "ct": ["58410719", "58422189", "58430197"], "end": "Rua JOSE VIRIATO DE CASTRO, 63     - JARDIM BOM REFUGIO", "nome": "LEONARDO VILLAS BOAS", "tipo": "EMEF        ", "tipo_cd": 1}, "type": "Feature"}, {"geometry": {"coordinates": [-46.754241, -23.619809], "type": "Point"}, "properties": {"cod": "93050", "ct": ["58451107", "58452682"], "end": "Rua JARACATIA, 448    - JARDIM UMARIZAL", "nome": "SYNESIO ROCHA, MIN.", "tipo": "EMEF        ", "tipo_cd": 1}, "type": "Feature"}, {"geometry": {"coordinates": [-46.753931, -23.635072], "type": "Point"}, "properties": {"cod": "93068", "ct": ["55130023", "55114148", "55160923"], "end": "Rua MELO COUTINHO, 69     - PARQUE REGINA", "nome": "ZULMIRA CAVALHEIRO FAUSTINO", "tipo": "EMEF        ", "tipo_cd": 1}, "type": "Feature"}, {"geometry": {"coordinates": [-46.750106, -23.640681], "type": "Point"}, "properties": {"cod": "93076", "ct": ["55111640", "55120557", "58160929", "58160930"], "end": "Rua DOUTOR ABELARDO DA CUNHA LOBO, 348    - PARQUE ARARIBA", "nome": "PAULO COLOMBO PEREIRA DE QUEIROZ, DES.", "tipo": "EMEF        ", "tipo_cd": 1}, "type": "Feature"}, {"geometry": {"coordinates": [-46.73103, -23.658243], "type": "Point"}, "properties": {"cod": "93084", "ct": ["58519658", "58513445"], "end": "Rua MOURISCA, 16     - JARDIM IBIRAPUERA", "nome": "GEN. DE GAULLE", "tipo": "EMEF        ", "tipo_cd": 1}, "type": "Feature"}, {"geometry": {"coordinates": [-46.787516, -23.642796], "type": "Point"}, "properties": {"cod": "93092", "ct": ["58410845", "58427889", "58430209"], "end": "Avenida AUGUSTO BARBOSA TAVARES, 716    - JARDIM MARIA SAMPAIO", "nome": "FAGUNDES VARELLA", "tipo": "EMEF        ", "tipo_cd": 1}, "type": "Feature"}, {"geometry": {"coordinates": [-46.723799, -23.535874], "type": "Point"}, "properties": {"cod": "93106", "ct": ["36415258", "36420057", "36415258", "38354187"], "end": "Rua PAULO FRANCO, 815    - VILA LEOPOLDINA", "nome": "DILERMANDO DIAS DOS SANTOS", "tipo": "EMEF        ", "tipo_cd": 1}, "type": "Feature"}, {"geometry": {"coordinates": [-46.742328, -23.519910999999997], "type": "Point"}, "properties": {"cod": "93114", "ct": ["38322307", "38311481"], "end": "Rua SILVA AIROSA, 100    - VILA RIBEIRO DE BARROS", "nome": "ANIBAL FREIRE, MIN", "tipo": "EMEF        ", "tipo_cd": 1}, "type": "Feature"}, {"geometry": {"coordinates": [-46.676247, -23.546166], "type": "Point"}, "properties": {"cod": "93122", "ct": ["38736283", "38736283", "38736283", "38010812"], "end": "Rua ATALAIA, 100    - SUMARE", "nome": "TTE. JOSE MARIA PINTO DUARTE", "tipo": "EMEF        ", "tipo_cd": 1}, "type": "Feature"}, {"geometry": {"coordinates": [-46.675819, -23.600579], "type": "Point"}, "properties": {"cod": "93131", "ct": ["38464931", "38498729", "30461298"], "end": "Rua CASA DO ATOR, 207    - VILA OLIMPIA", "nome": "PROFA. MARIA ANTONIETA D'ALKIMIN BASTO", "tipo": "EMEF        ", "tipo_cd": 1}, "type": "Feature"}, {"geometry": {"coordinates": [-46.693832, -23.550193], "type": "Point"}, "properties": {"cod": "93149", "ct": ["30329908", "30370286"], "end": "Rua FRADIQUE COUTINHO, 2200   - VILA MADALENA", "nome": "OLAVO PEZZOTTI, PROF.", "tipo": "EMEF        ", "tipo_cd": 1}, "type": "Feature"}, {"geometry": {"coordinates": [-46.67176, -23.621106], "type": "Point"}, "properties": {"cod": "93157", "ct": ["50448830"], "end": "Rua PASCAL, 1028   - CAMPO BELO", "nome": "CHIQUINHA RODRIGUES", "tipo": "EMEF        ", "tipo_cd": 1}, "type": "Feature"}, {"geometry": {"coordinates": [-46.69231, -23.615949], "type": "Point"}, "properties": {"cod": "93165", "ct": ["55315005"], "end": "Rua ROQUE PETRELLA, 1054   - VILA CORDEIRO", "nome": "DR. JOSE DIAS DA SILVEIRA", "tipo": "EMEF        ", "tipo_cd": 1}, "type": "Feature"}, {"geometry": {"coordinates": [-46.7016, -23.629895], "type": "Point"}, "properties": {"cod": "93173", "ct": ["51833128", "51833222", "51830222"], "end": "Rua DA PAZ, 1359   - CHACARA SANTO ANTONIO", "nome": "DES. JOAQUIM CANDIDO DE AZEVEDO MARQUES", "tipo": "EMEF        ", "tipo_cd": 1}, "type": "Feature"}, {"geometry": {"coordinates": [-46.70019, -23.655816], "type": "Point"}, "properties": {"cod": "93190", "ct": ["55244881", "56870178"], "end": "Rua OMAR CARDOSO, 99     - SANTO AMARO", "nome": "CARLOS DE ANDRADE RIZZINI", "tipo": "EMEF        ", "tipo_cd": 1}, "type": "Feature"}, {"geometry": {"coordinates": [-46.692946, -23.668478], "type": "Point"}, "properties": {"cod": "93203", "ct": ["56314648", "56330018", "56330125"], "end": "Rua BEIJUI, 296    - VILA ISA", "nome": "PROF. LAERTE RAMOS DE CARVALHO", "tipo": "EMEF        ", "tipo_cd": 1}, "type": "Feature"}, {"geometry": {"coordinates": [-46.68173, -23.671626], "type": "Point"}, "properties": {"cod": "93211", "ct": ["56316929", "56330292"], "end": "Rua JOAO FRANCO OLIVEIRA, 150    - CAMPININHA", "nome": "JOAO GUALBERTO DO AMARAL CARVALHO", "tipo": "EMEF        ", "tipo_cd": 1}, "type": "Feature"}, {"geometry": {"coordinates": [-46.682262, -23.686082], "type": "Point"}, "properties": {"cod": "93220", "ct": ["56114815"], "end": "Rua JUARI, 835    - JARDIM SABARA", "nome": "ANTONIO CARLOS DE ABREU SODRE, DR", "tipo": "EMEF        ", "tipo_cd": 1}, "type": "Feature"}, {"geometry": {"coordinates": [-46.672247999999996, -23.687573], "type": "Point"}, "properties": {"cod": "93238", "ct": ["56124075", "56112810"], "end": "Rua ANTONIO FERNANDES DE OLIVEIRA, 112    - JARDIM UBIRAJARA", "nome": "ANTENOR NASCENTES", "tipo": "EMEF        ", "tipo_cd": 1}, "type": "Feature"}, {"geometry": {"coordinates": [-46.665821, -23.691492999999998], "type": "Point"}, "properties": {"cod": "93246", "ct": ["56118940", "56155333"], "end": "Rua PROFESSOR CORR\u00caA BRITO, 355    - JARDIM DA PEDREIRA", "nome": "DES. MANOEL CARLOS DE FIGUEIREDO FERRAZ", "tipo": "EMEF        ", "tipo_cd": 1}, "type": "Feature"}, {"geometry": {"coordinates": [-46.655237, -23.694701000000002], "type": "Point"}, "properties": {"cod": "93254", "ct": ["56118687", "56155444"], "end": "Estrada DO ALVARENGA, 2113   - JARDIM OFELIA", "nome": "DEP. JOAO SUSSUMU HIRATA", "tipo": "EMEF        ", "tipo_cd": 1}, "type": "Feature"}, {"geometry": {"coordinates": [-46.648593, -23.694035], "type": "Point"}, "properties": {"cod": "93262", "ct": ["56123509"], "end": "Rua DAS ORQU\u00cdDEAS, 130    - PARQUE PRIMAVERA", "nome": "PROFA. ISABEL VIEIRA FERREIRA", "tipo": "EMEF        ", "tipo_cd": 1}, "type": "Feature"}, {"geometry": {"coordinates": [-46.662040000000005, -23.671364], "type": "Point"}, "properties": {"cod": "93271", "ct": ["55663331", "56780214"], "end": "Rua SALVADOR RODRIGUES NEGRAO, 602    - VILA MARARI", "nome": "TIRADENTES, ALF.", "tipo": "EMEF        ", "tipo_cd": 1}, "type": "Feature"}, {"geometry": {"coordinates": [-46.676072999999995, -23.671695], "type": "Point"}, "properties": {"cod": "93289", "ct": ["56319575"], "end": "Avenida JO\u00c3O PEIXOTO VIEGAS, 441    - JARDIM CONS\u00d3RCIO", "nome": "PEREIRA CARNEIRO, CDE.", "tipo": "EMEF        ", "tipo_cd": 1}, "type": "Feature"}, {"geometry": {"coordinates": [-46.703196999999996, -23.692241], "type": "Point"}, "properties": {"cod": "93297", "ct": ["56675628", "56693970"], "end": "Rua ANT\u00d4NIO MESQUITA PEREIRA, 78     - CAPELA DO SOCORRO", "nome": "PLACIDO DE CASTRO", "tipo": "EMEF        ", "tipo_cd": 1}, "type": "Feature"}, {"geometry": {"coordinates": [-46.710722, -23.683659], "type": "Point"}, "properties": {"cod": "93301", "ct": ["56876384", "55213228"], "end": "Rua DEPUTADO ADIB CHAMMAS, 140    - VELEIROS", "nome": "HEITOR DE ANDRADE", "tipo": "EMEF        ", "tipo_cd": 1}, "type": "Feature"}, {"geometry": {"coordinates": [-46.710886, -23.668028], "type": "Point"}, "properties": {"cod": "93319", "ct": ["55224479", "55481138", "56830001"], "end": "Rua FRANCISCO MENDES, 238    - SOCORRO", "nome": "PROF. ALMEIDA JUNIOR", "tipo": "EMEF        ", "tipo_cd": 1}, "type": "Feature"}, {"geometry": {"coordinates": [-46.701895, -23.722652], "type": "Point"}, "properties": {"cod": "93327", "ct": ["56675444", "56679313", "56670412"], "end": "Rua AC\u00c2MBARO, 39     - JARDIM CLIPER", "nome": "AFRANIO DE MELLO FRANCO, DR", "tipo": "EMEF        ", "tipo_cd": 1}, "type": "Feature"}, {"geometry": {"coordinates": [-46.699498, -23.732407000000002], "type": "Point"}, "properties": {"cod": "93335", "ct": ["59280884", "59289188", "59720284"], "end": "Rua MANOEL VITORINO PEREIRA, 220    - JORDAN\u00d3POLIS", "nome": "JOAO DE DEUS CARDOSO DE MELLO", "tipo": "EMEF        ", "tipo_cd": 1}, "type": "Feature"}, {"geometry": {"coordinates": [-46.709127, -23.740669], "type": "Point"}, "properties": {"cod": "93343", "ct": ["59394901", "59717216", "59720561", "59720506", "59720861"], "end": "Rua ANTONIO BORGES DA FONSECA, 15     - JARDIM FLORESTA", "nome": "OLEGARIO MARIANO", "tipo": "EMEF        ", "tipo_cd": 1}, "type": "Feature"}, {"geometry": {"coordinates": [-46.707351, -23.737710999999997], "type": "Point"}, "properties": {"cod": "93351", "ct": ["59394331", "59720021", "5972-0031", "5972-0043", "59716565"], "end": "Rua GEORGINA BOCCHIGLIERI, 55     - JARDIM BEATRIZ", "nome": "PROF. MILTON FERREIRA DE ALBUQUERQUE", "tipo": "EMEF        ", "tipo_cd": 1}, "type": "Feature"}, {"geometry": {"coordinates": [-46.705439, -23.771867999999998], "type": "Point"}, "properties": {"cod": "93360", "ct": ["55262053", "55262053", "55260150", "55267593"], "end": "Rua CONSTELACAO DO ERIDANO, 24     - JARDIM CAMPINAS", "nome": "PROFA. ELIZA RACHEL MACEDO DE SOUZA", "tipo": "EMEF        ", "tipo_cd": 1}, "type": "Feature"}, {"geometry": {"coordinates": [-46.684983, -23.770234], "type": "Point"}, "properties": {"cod": "93378", "ct": ["55284975", "55285303"], "end": "Rua GENERAL RENATO VARANDAS DE AZEVEDO, 377    - JARDIM TRES CORACOES", "nome": "DR. MANOEL DE ABREU", "tipo": "EMEF        ", "tipo_cd": 1}, "type": "Feature"}, {"geometry": {"coordinates": [-46.683476, -23.755782999999997], "type": "Point"}, "properties": {"cod": "93386", "ct": ["55281919", "55283189"], "end": "Rua S\u00c3O JOS\u00c9 DO RIO PRETO, 17     - CONJUNTO HABITACIONAL BRIGADEIRO FARIA L", "nome": "JOAQUIM BENTO ALVES DE LIMA NETO", "tipo": "EMEF        ", "tipo_cd": 1}, "type": "Feature"}, {"geometry": {"coordinates": [-46.691505, -23.744988], "type": "Point"}, "properties": {"cod": "93394", "ct": ["59714682"], "end": "Rua PELAGIA STARBULOV, 324    - PARQUE GRAJAU", "nome": "TEODOMIRO TOLEDO PIZA, DES.", "tipo": "EMEF        ", "tipo_cd": 1}, "type": "Feature"}, {"geometry": {"coordinates": [-46.69019, -23.716522], "type": "Point"}, "properties": {"cod": "93408", "ct": ["56616313", "56613114"], "end": "Rua FRANCISCO DE CALDAS, 50     - JARDIM ANA L\u00daCIA", "nome": "PAULO SETUBAL", "tipo": "EMEF        ", "tipo_cd": 1}, "type": "Feature"}, {"geometry": {"coordinates": [-46.686269, -23.704091000000002], "type": "Point"}, "properties": {"cod": "93416", "ct": ["56674466", "56674953"], "end": "Rua RAIMUNDO LOPES, 115    - JARDIM SATELITE", "nome": "ENG. JOSE AMADEI", "tipo": "EMEF        ", "tipo_cd": 1}, "type": "Feature"}, {"geometry": {"coordinates": [-46.69912, -23.709398999999998], "type": "Point"}, "properties": {"cod": "93424", "ct": ["56690999", "56665154", "56665154", "56665154"], "end": "Pra\u00e7a ESCOLAR, S/N    - CIDADE DUTRA", "nome": "DR. MIGUEL VIEIRA FERREIRA", "tipo": "EMEF        ", "tipo_cd": 1}, "type": "Feature"}, {"geometry": {"coordinates": [-46.503063, -23.551566], "type": "Point"}, "properties": {"cod": "93432", "ct": ["27411290", "27418263"], "end": "Rua GALEANDRA, S/N    - JARDIM FERNANDES", "nome": "BRIG. CORREIA DE MELLO", "tipo": "EMEF        ", "tipo_cd": 1}, "type": "Feature"}, {"geometry": {"coordinates": [-46.491620000000005, -23.555972], "type": "Point"}, "properties": {"cod": "93441", "ct": ["27464683", "27421742"], "end": "Avenida OSVALDO VALLE CORDEIRO, 337    - JARDIM BRASILIA", "nome": "CARLOS CHAGAS", "tipo": "EMEF        ", "tipo_cd": 1}, "type": "Feature"}, {"geometry": {"coordinates": [-46.492652, -23.563659], "type": "Point"}, "properties": {"cod": "93459", "ct": ["27411212", "27472718"], "end": "Rua BENTO TEIXEIRA, 100    - JARDIM BRASILIA", "nome": "EDUARDO PRADO", "tipo": "EMEF        ", "tipo_cd": 1}, "type": "Feature"}, {"geometry": {"coordinates": [-46.465157, -23.554717999999998], "type": "Point"}, "properties": {"cod": "93467", "ct": ["27486358"], "end": "Avenida FRANCISCO MUNHOZ FILHO, 431    - CIDADE L\u00cdDER", "nome": "DANYLO JOSE FERNANDES", "tipo": "EMEF        ", "tipo_cd": 1}, "type": "Feature"}, {"geometry": {"coordinates": [-46.459002000000005, -23.53004], "type": "Point"}, "properties": {"cod": "93475", "ct": ["22056385"], "end": "Rua CATARINA LOPES, 428    - ITAQUERA", "nome": "AYRES MARTINS TORRES", "tipo": "EMEF        ", "tipo_cd": 1}, "type": "Feature"}, {"geometry": {"coordinates": [-46.444314, -23.53231], "type": "Point"}, "properties": {"cod": "93483", "ct": ["20790288", "22056219", "20710466"], "end": "Rua MARCELINO DA SILVA, 50     - ITAQUERA", "nome": "BRIG. HAROLDO VELOSO", "tipo": "EMEF        ", "tipo_cd": 1}, "type": "Feature"}, {"geometry": {"coordinates": [-46.42846, -23.539447], "type": "Point"}, "properties": {"cod": "93491", "ct": ["25579095", "25544530"], "end": "Avenida NOSSA SENHORA DE GUADALUPE, 212    - JARDIM HELENA", "nome": "ARTUR NEIVA", "tipo": "EMEF        ", "tipo_cd": 1}, "type": "Feature"}, {"geometry": {"coordinates": [-46.429696, -23.547123000000003], "type": "Point"}, "properties": {"cod": "93505", "ct": ["25544548", "25578194"], "end": "Rua LU\u00cdS MEDEIROS DA SILVA, 195    - JARDIM S\u00c3O PEDRO", "nome": "BENEDITO CALIXTO", "tipo": "EMEF        ", "tipo_cd": 1}, "type": "Feature"}, {"geometry": {"coordinates": [-46.412502, -23.541621], "type": "Point"}, "properties": {"cod": "93513", "ct": ["25578176", "25544545", "25578176"], "end": "Rua GETULINA, 278    - GUAIANASES", "nome": "PROF. JOAO DE LIMA PAIVA", "tipo": "EMEF        ", "tipo_cd": 1}, "type": "Feature"}, {"geometry": {"coordinates": [-46.409816, -23.544735], "type": "Point"}, "properties": {"cod": "93521", "ct": ["25578121", "25578121"], "end": "Rua CARANA\u00cdBA, 58     - GUAIANAZES", "nome": "VINTE E CINCO DE JANEIRO", "tipo": "EMEF        ", "tipo_cd": 1}, "type": "Feature"}, {"geometry": {"coordinates": [-46.400624, -23.548973], "type": "Point"}, "properties": {"cod": "93530", "ct": ["25578088", "25575726"], "end": "Rua TORRE DE SANTIAGO, 425    - GUAIANASES", "nome": "MADRE JOANA ANGELICA DE JESUS", "tipo": "EMEF        ", "tipo_cd": 1}, "type": "Feature"}, {"geometry": {"coordinates": [-46.416057, -23.56496], "type": "Point"}, "properties": {"cod": "93548", "ct": ["25559379", "25558181"], "end": "Estrada IGUATEMI, 4977   - JARDIM PEDRA BRANCA", "nome": "SATURNINO PEREIRA", "tipo": "EMEF        ", "tipo_cd": 1}, "type": "Feature"}, {"geometry": {"coordinates": [-46.441596000000004, -23.596295], "type": "Point"}, "properties": {"cod": "93556", "ct": ["27312791", "27320550"], "end": "Rua ABNER RIBEIRO BORGES, 224    - JARDIM ROSELI", "nome": "PROF. FELICIO PAGLIUSO", "tipo": "EMEF        ", "tipo_cd": 1}, "type": "Feature"}, {"geometry": {"coordinates": [-46.447691999999996, -23.599475], "type": "Point"}, "properties": {"cod": "93564", "ct": ["27312404"], "end": "Rua PRIMO BAUDINI, 441    - JARDIM AUGUSTO", "nome": "JOAQUIM OSORIO DUQUE ESTRADA", "tipo": "EMEF        ", "tipo_cd": 1}, "type": "Feature"}, {"geometry": {"coordinates": [-46.453876, -23.598777], "type": "Point"}, "properties": {"cod": "93572", "ct": ["27312970", "27319011", "27320445"], "end": "Rua DIOGO GARCIA, 128    - PARQUE BOA ESPERANCA", "nome": "COELHO NETO", "tipo": "EMEF        ", "tipo_cd": 1}, "type": "Feature"}, {"geometry": {"coordinates": [-46.453208000000004, -23.602102], "type": "Point"}, "properties": {"cod": "93581", "ct": ["27311596", "27320701"], "end": "Rua MANUEL HENRIQUES DE PAIVA, S/N    - PARQUE BOA ESPERANCA", "nome": "PLINIO DE QUEIROZ", "tipo": "EMEF        ", "tipo_cd": 1}, "type": "Feature"}, {"geometry": {"coordinates": [-46.464997, -23.611316], "type": "Point"}, "properties": {"cod": "93599", "ct": ["29192397", "29192397"], "end": "Avenida SATELITE, 688    - CIDADE SATELITE SANTA BARBARA", "nome": "JOSE MARIA WHITAKER", "tipo": "EMEF        ", "tipo_cd": 1}, "type": "Feature"}, {"geometry": {"coordinates": [-46.471567, -23.605466], "type": "Point"}, "properties": {"cod": "93602", "ct": ["29190409"], "end": "Avenida JOS\u00c9 VELHO BARRETO, 371    - PARQUE COLONIAL", "nome": "RODRIGO MELLO FRANCO DE ANDRADE", "tipo": "EMEF        ", "tipo_cd": 1}, "type": "Feature"}, {"geometry": {"coordinates": [-46.486101, -23.588803], "type": "Point"}, "properties": {"cod": "93611", "ct": ["20108899", "29193114", "20140640", "20140781"], "end": "Rua DOUTOR PAULO QUEIROZ, 955    - JARDIM NOVE DE JULHO", "nome": "RIVADAVIA MARQUES JUNIOR, PROF.", "tipo": "EMEF        ", "tipo_cd": 1}, "type": "Feature"}, {"geometry": {"coordinates": [-46.479328, -23.575371], "type": "Point"}, "properties": {"cod": "93629", "ct": ["27480271", "27484643"], "end": "Avenida AFONSO DE SAMPAIO E SOUSA, 2051   - ITAQUERA", "nome": "PROF. AURELIO ARROBAS MARTINS", "tipo": "EMEF        ", "tipo_cd": 1}, "type": "Feature"}, {"geometry": {"coordinates": [-46.40195, -23.599860999999997], "type": "Point"}, "properties": {"cod": "93645", "ct": ["29640122", "22820040"], "end": "Rua RENE DE TOLEDO, 700    - CIDADE TIRADENTES", "nome": "MAURICIO GOULART", "tipo": "EMEF        ", "tipo_cd": 1}, "type": "Feature"}, {"geometry": {"coordinates": [-46.397962, -23.609879], "type": "Point"}, "properties": {"cod": "93653", "ct": ["29645686", "22821355"], "end": "Rua FRANCISCO JOSE VIANA, 894    - CIDADE TIRADENTES", "nome": "WLADIMIR HERZOG", "tipo": "EMEF        ", "tipo_cd": 1}, "type": "Feature"}, {"geometry": {"coordinates": [-46.484716, -23.503429999999998], "type": "Point"}, "properties": {"cod": "93661", "ct": ["25420668", "25464145"], "end": "Rua PAULO BIFANO ALVES, 658    - PARQUE BOTURUSSU", "nome": "OCTAVIO MANGABEIRA", "tipo": "EMEF        ", "tipo_cd": 1}, "type": "Feature"}, {"geometry": {"coordinates": [-46.493891, -23.519542], "type": "Point"}, "properties": {"cod": "93670", "ct": ["20429134", "22802017", "20420900"], "end": "Pra\u00e7a DOUTOR TOLOZA DE OLIVEIRA, 37     - JARDIM TRES MARIAS", "nome": "AMADEU AMARAL", "tipo": "EMEF        ", "tipo_cd": 1}, "type": "Feature"}, {"geometry": {"coordinates": [-46.464675, -23.501429], "type": "Point"}, "properties": {"cod": "93688", "ct": ["20370421", "22972722", "20370421", "20300082"], "end": "Rua PAU D ARCOROXO, 340    - JARDIM PEDRO JOSE NUNES", "nome": "PEDRO ALEIXO, DR.", "tipo": "EMEF        ", "tipo_cd": 1}, "type": "Feature"}, {"geometry": {"coordinates": [-46.461635, -23.496888000000002], "type": "Point"}, "properties": {"cod": "93696", "ct": ["22970192", "20370226"], "end": "Rua L\u00cdBERO ANCONA LOPES, 169    - PARQUE CRUZEIRO DO SUL", "nome": "PRES. EPITACIO PESSOA", "tipo": "EMEF        ", "tipo_cd": 1}, "type": "Feature"}, {"geometry": {"coordinates": [-46.466533, -23.511389], "type": "Point"}, "properties": {"cod": "93700", "ct": ["20492370", "22800020"], "end": "Rua PADRE ORLANDO NOGUEIRA, 139    - LIMOEIRO", "nome": "RAUL PILLA", "tipo": "EMEF        ", "tipo_cd": 1}, "type": "Feature"}, {"geometry": {"coordinates": [-46.461211, -23.520689], "type": "Point"}, "properties": {"cod": "93718", "ct": ["20534430", "20525777"], "end": "Rua TREVO DE SANTA MARIA, 1      - PARQUE GUARANI", "nome": "ANTONIO DUARTE DE ALMEIDA, PROF", "tipo": "EMEF        ", "tipo_cd": 1}, "type": "Feature"}, {"geometry": {"coordinates": [-46.456224, -23.512718], "type": "Point"}, "properties": {"cod": "93726", "ct": ["20536688", "20540273", "20544737", "20510707", "20510708"], "end": "Rua DOM FRANCISCO DE CAMPOS BARRETO, 51     - JARDIM SANTANA", "nome": "PEDRO TEIXEIRA", "tipo": "EMEF        ", "tipo_cd": 1}, "type": "Feature"}, {"geometry": {"coordinates": [-46.447153, -23.508692], "type": "Point"}, "properties": {"cod": "93734", "ct": ["20541899"], "end": "Rua BALTAZAR SANTANA, 365    - JARDIM PLANALTO", "nome": "ANTONIO CARLOS DE ANDRADA E SILVA", "tipo": "EMEF        ", "tipo_cd": 1}, "type": "Feature"}, {"geometry": {"coordinates": [-46.440185, -23.494392], "type": "Point"}, "properties": {"cod": "93742", "ct": ["20372056", "22970628", "22970628", "22970628", "22970628", "22970628", "22970628", "22970628", "22970628"], "end": "Rua AMERICO GOMES DA COSTA, 93     - VILA AMERICANA", "nome": "ARQ. LUIS SAIA", "tipo": "EMEF        ", "tipo_cd": 1}, "type": "Feature"}, {"geometry": {"coordinates": [-46.434575, -23.509872], "type": "Point"}, "properties": {"cod": "93751", "ct": ["20540110", "20544822"], "end": "Rua JOAO NICARIO ELEUTERIO, 374    - CIDADE NOVA SAO MIGUEL", "nome": "PAULO ROLIM LOUREIRO, D.", "tipo": "EMEF        ", "tipo_cd": 1}, "type": "Feature"}, {"geometry": {"coordinates": [-46.429567999999996, -23.499855], "type": "Point"}, "properties": {"cod": "93769", "ct": ["22975814", "20301004"], "end": "Rua JOS\u00c9 FERREIRA CRESPO, 495    - JARDIM S\u00c3O VICENTE", "nome": "PEDRO DE FRONTIN, ALM.", "tipo": "EMEF        ", "tipo_cd": 1}, "type": "Feature"}, {"geometry": {"coordinates": [-46.421941, -23.520468], "type": "Point"}, "properties": {"cod": "93777", "ct": ["20351648", "25147430"], "end": "Rua TAPERA, 415    - VILA NOVA CURU\u00c7\u00c1", "nome": "PROF. FERNANDO DE AZEVEDO", "tipo": "EMEF        ", "tipo_cd": 1}, "type": "Feature"}, {"geometry": {"coordinates": [-46.419335, -23.522916], "type": "Point"}, "properties": {"cod": "93785", "ct": ["25133616", "20351650", "20351650", "20340174", "20340545"], "end": "Rua ANANAI, 968    - VILA NOVA CURUCA", "nome": "JOAO RIBEIRO DE BARROS", "tipo": "EMEF        ", "tipo_cd": 1}, "type": "Feature"}, {"geometry": {"coordinates": [-46.439561, -23.519032], "type": "Point"}, "properties": {"cod": "93793", "ct": ["20516273", "20510087"], "end": "Avenida INAJAGUACU, 13     - VILA PROGRESSO", "nome": "PE. JOSE DE ANCHIETA", "tipo": "EMEF        ", "tipo_cd": 1}, "type": "Feature"}, {"geometry": {"coordinates": [-46.435966, -23.522416], "type": "Point"}, "properties": {"cod": "93807", "ct": ["20518637"], "end": "Rua CEC\u00cdLIA ITER, 746    - VILA PROGRESSO (ZONA LESTE)", "nome": "DR. JOAO AUGUSTO BREVES", "tipo": "EMEF        ", "tipo_cd": 1}, "type": "Feature"}, {"geometry": {"coordinates": [-46.411649, -23.527853], "type": "Point"}, "properties": {"cod": "93815", "ct": ["20351656", "20340430", "20340168", "20340201"], "end": "Rua PORTO DO BEZERRA, 25     - JARDIM GUAIANAZES", "nome": "ALEXANDRE DE GUSMAO", "tipo": "EMEF        ", "tipo_cd": 1}, "type": "Feature"}, {"geometry": {"coordinates": [-46.4088, -23.509551000000002], "type": "Point"}, "properties": {"cod": "93823", "ct": ["20354244", "20340584", "20341125"], "end": "Rua PATAJUBA, 18     - JARDIM CAMPOS", "nome": "HENRIQUE FELIPE DA COSTA - HENRICAO", "tipo": "EMEF        ", "tipo_cd": 1}, "type": "Feature"}, {"geometry": {"coordinates": [-46.40647, -23.509683], "type": "Point"}, "properties": {"cod": "93831", "ct": ["25147513", "20353844", "20341114", "20341113"], "end": "Rua ILHA DE MARUI, 100    - JARDIM CAMPOS", "nome": "ANTONIA E ARTUR BEGBIE", "tipo": "EMEF        ", "tipo_cd": 1}, "type": "Feature"}, {"geometry": {"coordinates": [-46.409978, -23.497117000000003], "type": "Point"}, "properties": {"cod": "93840", "ct": ["25617361", "25670003"], "end": "Rua JOSE ALEXANDRE MACHADO, 22     - JARDIM SILVA TELES", "nome": "GEN. NEWTON REIS", "tipo": "EMEF        ", "tipo_cd": 1}, "type": "Feature"}, {"geometry": {"coordinates": [-46.41897, -23.496329], "type": "Point"}, "properties": {"cod": "93858", "ct": ["25865251", "25845448"], "end": "Rua GENDIROBA, 210    - JARDIM MIRAGAIA", "nome": "ME. MARIA IMILDA DO SANTISSIMO SACRAMENTO", "tipo": "EMEF        ", "tipo_cd": 1}, "type": "Feature"}, {"geometry": {"coordinates": [-46.420574, -23.482833], "type": "Point"}, "properties": {"cod": "93866", "ct": ["25852273"], "end": "Rua DOUTOR JOS\u00c9 DE PORCI\u00daNCULA, 986    - PARQUE PAULISTANO", "nome": "RAIMUNDO CORREIA", "tipo": "EMEF        ", "tipo_cd": 1}, "type": "Feature"}, {"geometry": {"coordinates": [-46.417975, -23.486701], "type": "Point"}, "properties": {"cod": "93874", "ct": ["25865469", "25810143"], "end": "Rua ALTOS DO OITI, 537    - VILA HELENA", "nome": "JOSE AMERICO DE ALMEIDA", "tipo": "EMEF        ", "tipo_cd": 1}, "type": "Feature"}, {"geometry": {"coordinates": [-46.421516, -23.487779999999997], "type": "Point"}, "properties": {"cod": "93882", "ct": ["25812539", "25840548"], "end": "Rua SAO GONCALO DO RIO DAS PEDRAS, 140    - VILA MARA", "nome": "PROF. JOSE BENTO DE ASSIS", "tipo": "EMEF        ", "tipo_cd": 1}, "type": "Feature"}, {"geometry": {"coordinates": [-46.401813, -23.493264], "type": "Point"}, "properties": {"cod": "93891", "ct": ["25810360", "25840596", "25865533"], "end": "Rua CORD\u00c3O DE S\u00c3O FRANCISCO, 797    - VILA AIMOR\u00c9", "nome": "ARMANDO CRIDEY RIGHETTI", "tipo": "EMEF        ", "tipo_cd": 1}, "type": "Feature"}, {"geometry": {"coordinates": [-46.394462, -23.490229], "type": "Point"}, "properties": {"cod": "93904", "ct": ["25810794", "25810906"], "end": "Rua CACHOEIRA MANGAVAL, 120    - VILA ITAIM", "nome": "CAPISTRANO DE ABREU", "tipo": "EMEF        ", "tipo_cd": 1}, "type": "Feature"}, {"geometry": {"coordinates": [-46.395171999999995, -23.499103], "type": "Point"}, "properties": {"cod": "93912", "ct": ["29638634"], "end": "Avenida BARAO DE ALAGOAS, 223    - ITAIM PAULISTA", "nome": "PROF. CARLOS PASQUALE", "tipo": "EMEF        ", "tipo_cd": 1}, "type": "Feature"}, {"geometry": {"coordinates": [-46.392268, -23.508198], "type": "Point"}, "properties": {"cod": "93921", "ct": ["29632626", "25673420"], "end": "Rua JOSE BORGES DO CANTO, 18     - JARDIM CAMARGO", "nome": "EZEQUIEL RAMOS JUNIOR", "tipo": "EMEF        ", "tipo_cd": 1}, "type": "Feature"}, {"geometry": {"coordinates": [-46.381377, -23.503707000000002], "type": "Point"}, "properties": {"cod": "93939", "ct": ["25672416"], "end": "Rua JO\u00c3O BISCIONE, 200    - JARDIM CAMARGO NOVO", "nome": "SUD MENNUCCI", "tipo": "EMEF        ", "tipo_cd": 1}, "type": "Feature"}, {"geometry": {"coordinates": [-46.575472, -23.546951], "type": "Point"}, "properties": {"cod": "93947", "ct": ["22954128"], "end": "Rua JARINU, 730    - CIDADE M\u00c3E DO C\u00c9U", "nome": "OTHELO FRANCO, GEN.", "tipo": "EMEF        ", "tipo_cd": 1}, "type": "Feature"}, {"geometry": {"coordinates": [-46.567759, -23.540399], "type": "Point"}, "properties": {"cod": "93955", "ct": ["22965234", "22954085"], "end": "Rua ITAPURA, 210    - VILA GOMES CARDIM", "nome": "JACKSON DE FIGUEIREDO", "tipo": "EMEF        ", "tipo_cd": 1}, "type": "Feature"}, {"geometry": {"coordinates": [-46.532983, -23.535213], "type": "Point"}, "properties": {"cod": "93963", "ct": ["26534268", "26538062"], "end": "Rua DR EDGAR GARCIA VIEIRA, 140    - VILA MATILDE", "nome": "PRES. JOAO PINHEIRO", "tipo": "EMEF        ", "tipo_cd": 1}, "type": "Feature"}, {"geometry": {"coordinates": [-46.519113, -23.545233], "type": "Point"}, "properties": {"cod": "93971", "ct": ["26511274", "26511471"], "end": "Pra\u00e7a BAUXITA, 99     - VILA DALILA", "nome": "19 DE NOVEMBRO", "tipo": "EMEF        ", "tipo_cd": 1}, "type": "Feature"}, {"geometry": {"coordinates": [-46.509914, -23.538113], "type": "Point"}, "properties": {"cod": "93980", "ct": ["29582311", "29589237"], "end": "Rua PEDRO MORCILLA FILHO, 578    - CIDADE PATRIARCA", "nome": "FIRMINO TIBURCIO DA COSTA", "tipo": "EMEF        ", "tipo_cd": 1}, "type": "Feature"}, {"geometry": {"coordinates": [-46.499875, -23.547382], "type": "Point"}, "properties": {"cod": "93998", "ct": ["27451691", "27471566", "27493900"], "end": "Rua ISAURA VERGUEIRO NAUFEL, 238    - VILA NHOCUNE", "nome": "ABRAO DE MORAES, PROF", "tipo": "EMEF        ", "tipo_cd": 1}, "type": "Feature"}, {"geometry": {"coordinates": [-46.508219, -23.543603], "type": "Point"}, "properties": {"cod": "94005", "ct": ["27494506"], "end": "Avenida PROFESSOR XAVIER DE LIMA, 644    - JARDIM HERCILIA", "nome": "HUMBERTO DE CAMPOS", "tipo": "EMEF        ", "tipo_cd": 1}, "type": "Feature"}, {"geometry": {"coordinates": [-46.504376, -23.536486], "type": "Point"}, "properties": {"cod": "94013", "ct": ["29581377"], "end": "Rua DOUTOR FREDERICO BROTERO, 134    - CIDADE PATRIARCA", "nome": "JOSE BONIFACIO", "tipo": "EMEF        ", "tipo_cd": 1}, "type": "Feature"}, {"geometry": {"coordinates": [-46.500764000000004, -23.5352], "type": "Point"}, "properties": {"cod": "94021", "ct": ["26852359"], "end": "Pra\u00e7a ARARUVA, 199    - CIDADE PATRIARCA", "nome": "VISC. DE CAIRU", "tipo": "EMEF        ", "tipo_cd": 1}, "type": "Feature"}, {"geometry": {"coordinates": [-46.49347, -23.538608], "type": "Point"}, "properties": {"cod": "94030", "ct": ["29582051", "29585837", "29582051"], "end": "Rua DESEMBARGADOR ROCHA PORTELA, 464    - ARTUR ALVIM", "nome": "ARTHUR ALVIM", "tipo": "EMEF        ", "tipo_cd": 1}, "type": "Feature"}, {"geometry": {"coordinates": [-46.48616, -23.527015], "type": "Point"}, "properties": {"cod": "94048", "ct": ["20486864", "22806566", "20420926"], "end": "Rua ANTONINO BACAERI, 171    - JARDIM NORDESTE", "nome": "ANTONIO VIEIRA, PE", "tipo": "EMEF        ", "tipo_cd": 1}, "type": "Feature"}, {"geometry": {"coordinates": [-46.476908, -23.532868], "type": "Point"}, "properties": {"cod": "94056", "ct": ["22805121"], "end": "Rua JOHN NEPER, 109    - JARDIM COIMBRA", "nome": "DA. JENNY GOMES", "tipo": "EMEF        ", "tipo_cd": 1}, "type": "Feature"}, {"geometry": {"coordinates": [-46.472666, -23.534338], "type": "Point"}, "properties": {"cod": "94064", "ct": ["20483508", "20414550"], "end": "Rua CAMBAXIRRA, 176    - CIDADE ANT\u00d4NIO ESTEV\u00c3O DE CARVALHO", "nome": "8 DE MAIO", "tipo": "EMEF        ", "tipo_cd": 1}, "type": "Feature"}, {"geometry": {"coordinates": [-46.47737, -23.517763000000002], "type": "Point"}, "properties": {"cod": "94072", "ct": ["22804192"], "end": "Rua S\u00cdLVIO RIBEIRO DOS SANTOS, 104    - VILA UNI\u00c3O (ZONA LESTE)", "nome": "WANY SALGADO ROCHA, PROFA.", "tipo": "EMEF        ", "tipo_cd": 1}, "type": "Feature"}, {"geometry": {"coordinates": [-46.498903999999996, -23.504795], "type": "Point"}, "properties": {"cod": "94081", "ct": ["25464008", "25467508", "25420667"], "end": "Rua ITAPIRUNA, 131    - JARDIM PENHA", "nome": "PROF. HENRIQUE PEGADO", "tipo": "EMEF        ", "tipo_cd": 1}, "type": "Feature"}, {"geometry": {"coordinates": [-46.494353000000004, -23.50902], "type": "Point"}, "properties": {"cod": "94099", "ct": ["22809975", "20420865", "20410460"], "end": "Rua JAPARAIQUARA, 679    - VILA RIO BRANCO", "nome": "MAL. JUAREZ TAVORA", "tipo": "EMEF        ", "tipo_cd": 1}, "type": "Feature"}, {"geometry": {"coordinates": [-46.507807, -23.513862], "type": "Point"}, "properties": {"cod": "94102", "ct": ["29571835", "29582803"], "end": "Rua SAO CELSO, 365    - VILA DOMITILA", "nome": "FREI. FRANCISCO DE MONT' ALVERNE", "tipo": "EMEF        ", "tipo_cd": 1}, "type": "Feature"}, {"geometry": {"coordinates": [-46.507395, -23.515472], "type": "Point"}, "properties": {"cod": "94111", "ct": ["27913790", "29574092"], "end": "Rua CONCEI\u00c7\u00c3O DA BREJAUBA, 68     - JARDIM POPULAR", "nome": "LUIS WASHINGTON VITA", "tipo": "EMEF        ", "tipo_cd": 1}, "type": "Feature"}, {"geometry": {"coordinates": [-46.530578999999996, -23.511229999999998], "type": "Point"}, "properties": {"cod": "94129", "ct": ["26412963", "26410956"], "end": "Rua FAUSTINO PAGANINI, 647    - VILA PIERINA", "nome": "GUILHERME DE ALMEIDA", "tipo": "EMEF        ", "tipo_cd": 1}, "type": "Feature"}, {"geometry": {"coordinates": [-46.526845, -23.502895000000002], "type": "Point"}, "properties": {"cod": "94137", "ct": ["29586723", "29582743"], "end": "Rua FREI RICARDO DO PILAR, 60     - CANGA\u00cdBA", "nome": "CECILIA MEIRELES", "tipo": "EMEF        ", "tipo_cd": 1}, "type": "Feature"},